aeropuerto,oac,iata,tipo,denominacion,coordenadas,latitud,longitud,elev,uom_elev,ref,distancia_ref,direccion_ref,condicion,control,region,uso,trafico,sna,concesionado,provincia
DOZ,SAME,MDZ,Aerodromo,MENDOZA/EL PLUMERILLO,"""32°49'54""""S  68°47'34""""W""",-68.79277778,-32.83166667,704,Metros,Mendoza,8,NE,PUBLICO,CONTROL,RANO,,Internacional,SI,SI,MENDOZA
ECX,,,Aerodromo,EDUARDO CASTEX,"""35°52'56""""S  64°16'30""""W""",-64.275,-35.88222222,183,Metros,Eduardo Castex,4.5,NE,PUBLICO,NOCONTROL,RACE,CIVIL,Nacional,NO,NO,LA PAMPA
HDT,,,Helipuerto,DON TORCUATO/TIMEN S.A.,"""34°29'46""""S  58°36'29""""W""",-58.608031,-34.496085,6,Metros,Ex Aerodromo Don Torcuato,0,Lindando,PUBLICO,NOCONTROL,RACE,CIVIL,Nacional,NO,NO,BUENOS AIRES
HIL,,,Helipuerto,GRAL. VILLEGAS/SAN ISIDRO LABRADOR II,"""35° 4'54""""S  63° 4'48""""W""",-63.079953,-35.081749,115,Metros,General Villegas,8,SE,PRIVADO,NOCONTROL,RACE,CIVIL,Nacional,NO,NO,BUENOS AIRES
MLG,SAMM,LGS,Aerodromo,MALARGÜE/COMODORO D. RICARDO SALOMON,"""35°29'43""""S  69°34'23""""W""",-69.57305556,-35.49527778,1424,Metros,Malargüe,1,S,PUBLICO,CONTROL,RANO,,Nacional,SI,SI,MENDOZA
TEC,,,Aerodromo,ESTANCIA TECKA,"""43°36'44""""S  71° 1'19""""W""",-71.02194444,-43.61222222,720,Metros,Estancia Tecka,2.8,O,PRIVADO,NOCONTROL,RASU,CIVIL,Nacional,NO,NO,CHUBUT
CED,,,Aerodromo,MERCEDES,"""33°38'32""""S  65°25'14""""W""",-65.42051,-33.6422,515,Metros,Villa Mercedes,3,NE,PUBLICO,NOCONTROL,RANO,,Nacional,NO,NO,SAN LUIS
ESN,,,Aerodromo,ESQUINA,"""30° 2'51""""S  59°32' 7""""W""",-59.53521,-30.04762,39,Metros,Esquina,4,S,PUBLICO,NOCONTROL,RANE,CIVIL,Nacional,NO,NO,CORRIENTES
HDA,,,Helipuerto,BUENOS AIRES/DARSENA SUR,"""34°37'40""""S  58°21' 6""""W""",-58.351532,-34.627862,5,Metros,Isla Demarchi,0,O,PUBLICO,NOCONTROL,RACE,MIL,Nacional,NO,NO,CIUDAD AUTONOMA DE BUENOS AIRES
HAI,,,Helipuerto,VILLA CARLOS PAZ/NORBERTO CORDEIRO,"""31°24'51""""S  64°29'49""""W""",-64.497037,-31.41415,621,Metros,Margen E Rio San Antonio y Rio Uruguay,0,Lindando,PRIVADO,NOCONTROL,RANO,CIVIL,Nacional,NO,NO,CORDOBA
TIN,SANI,,Aerodromo,TINOGASTA,"""28° 2'27""""S  67°34'39""""W""",-67.57759,-28.04089,1210,Metros,Tinogasta,1,NO,PRIVADO,NOCONTROL,RANO,,Nacional,NO,NO,CATAMARCA
MOI,,,Aerodromo,CORRALITO/DON MOISES,"""32° 2' 8""""S  64°11'28""""W""",-64.19111111,-32.03555556,489,Metros,Corralito,1.5,S,PRIVADO,NOCONTROL,RANO,AEROAPP,Nacional,NO,NO,CORDOBA
VDR,,,Aerodromo,VILLA DEL ROSARIO,"""31°34'50""""S  63°32'20""""W""",-63.53888889,-31.58055556,253,Metros,Villa del Rosario,1.5,S,PUBLICO,NOCONTROL,RANO,,Nacional,NO,NO,CORDOBA
DOL,SAZD,,Aerodromo,DOLORES,"""36°19'12""""S  57°43'14""""W""",-57.72055556,-36.32,10,Metros,Dolores,4,O,PUBLICO,NOCONTROL,RACE,CIVIL,Nacional,NO,NO,BUENOS AIRES
HDL,,,Helipuerto,JUNIN DE LOS ANDES/CASA DE LATA,"""39°48'56""""S  71°10'12""""W""",-71.16995,-39.815579,982,Metros,Junin de los Andes,12,N,PRIVADO,NOCONTROL,RACE,CIVIL,Nacional,NO,NO,NEUQUEN
HHM,,,Helipuerto,SALTA/HOSPITAL DE MILAGRO,"""24°46'23""""S  65°24'56""""W""",-65.415621,-24.772921,1240,Metros,Salta,3,N,PRIVADO,NOCONTROL,RANO,CIVIL,Nacional,NO,NO,SALTA
JMB,,,Aerodromo,TRES LOMAS,"""36°26'35""""S  62°52'45""""W""",-62.87927,-36.44296,116,Metros,Tres Lomas,2,NO,PRIVADO,NOCONTROL,RACE,,Nacional,NO,NO,BUENOS AIRES
LMF,,,Aerodromo,LOS MOLINOS/ESTABLECIMIENTO LA FLORENCIA,"""33° 4'45""""S  61°18'59""""W""",-61.31628,-33.07912,75,Metros,Los Molinos,3,NNE,PRIVADO,NOCONTROL,RACE,AEROAPP,Nacional,NO,NO,SANTA FE
SUZ,SAZC,CSZ,Aerodromo,CORONEL SUAREZ/BRIG. D. H. E.  RUIZ,"""37°26'46""""S  61°53'22""""W""",-61.88934,-37.44609,234,Metros,Coronel Suarez,3,ENE,PUBLICO,NOCONTROL,RACE,CIVIL,Nacional,NO,NO,BUENOS AIRES
HLU,,,Helipuerto,LUJAN/TRANSENER S.A.,"""32°22' 0""""S  66° 3'59""""W""",-66.066423,-32.366669,600,Metros,Lujan,9,O,PRIVADO,NOCONTROL,RANO,CIVIL,Nacional,NO,NO,SAN LUIS
SMS,,,Aerodromo,SAN MARCOS/CHIALVA S.H.,"""32°44'12""""S  62°31'52""""W""",-62.53111111,-32.73666667,115,Metros,Bell Ville,19,SE,PRIVADO,NOCONTROL,RANO,AEROAPP,Nacional,NO,NO,CORDOBA
SRE,,,Aerodromo,SANTA REGINA/FORTIN DE GAINZA,"""34°32'48""""S  63° 7'28""""W""",-63.12451,-34.54661,130,Metros,Santa Regina,3,E,PRIVADO,NOCONTROL,RACE,,Nacional,NO,NO,BUENOS AIRES
CTP,,,Aerodromo,CATRILO/ESTABLECIMIENTO LA MARIA PILAR,"""36°29'19""""S  63°25'59""""W""",-63.43305556,-36.48861111,125,Metros,Catrilo,9,S,PRIVADO,NOCONTROL,RACE,CIVIL,Nacional,NO,NO,LA PAMPA
GOM,,,Aerodromo,CAÑADA DE GOMEZ,"""32°48'32""""S  61°21'57""""W""",-61.36579,-32.80887,82,Metros,Cañada de Gomez,1.5,E,PUBLICO,NOCONTROL,RACE,CIVIL,Nacional,NO,NO,SANTA FE
JCM,,,Aerodromo,JUAREZ CELMAN/BRIG. MY. JUAN IGNACIO SAN MARTIN,"""31°12'40""""S  64° 9'38""""W""",-64.16064,-31.21113,495,Metros,Juarez Celman,20,N,PUBLICO,NOCONTROL,RANO,CIVIL,Nacional,NO,NO,CORDOBA
VRU,,,Aerodromo,VILLA RUMIPAL/PRIMER TENIENTE MARIO NIVOLI,"""32°11' 3""""S  64°29'20""""W""",-64.48888889,-32.18416667,666,Metros,Villa Rumipal,0,ENE,PUBLICO,NOCONTROL,RANO,,Nacional,NO,NO,CORDOBA
ARB,,,Aerodromo,ARRIBEÑOS,"""34°13'19""""S  61°23'12""""W""",-61.38666667,-34.22194444,82,Metros,Arribeños,3.3,SO,PUBLICO,NOCONTROL,RACE,CIVIL,Nacional,NO,NO,BUENOS AIRES
HMM,,,Helipuerto,DR. MARIANO MORENO,"""34°33'46""""S  58°47'26""""W""",-58.790569,-34.562908,32,Metros,Jose C. Paz,7,S,PRIVADO,NOCONTROL,RACE,MIL,Nacional,NO,NO,BUENOS AIRES
MGI,,,Aerodromo,ISLA MARTIN GARCIA,"""34°10'56""""S  58°14'49""""W""",-58.24694444,-34.18222222,2,Metros,Isla Martin Garcia,0,Lindando,PUBLICO,NOCONTROL,RACE,CIVIL,Nacional,NO,NO,BUENOS AIRES
RJA,,,Aerodromo,ROJAS,"""34°12'55""""S  60°40'24""""W""",-60.67325,-34.21534,6,Metros,Rojas,6,SE,PUBLICO,NOCONTROL,RACE,,Nacional,NO,NO,BUENOS AIRES
SCL,,,Aerodromo,SANTA CLARA DE SAGUIER,"""31°21'20""""S  61°49'47""""W""",-61.82983,-31.35548,105,Metros,Santa Clara de Saguier,2.5,SSO,PRIVADO,NOCONTROL,RANO,CIVIL,Nacional,NO,NO,SANTA FE
RLA,SAFR,,Aerodromo,RAFAELA,"""31°16'57""""S  61°30' 6""""W""",-61.50166667,-31.2825,99,Metros,Rafaela,3.5,S,PUBLICO,NOCONTROL,RANO,,Nacional,NO,NO,SANTA FE
VEZ,,,Aerodromo,GALVEZ,"""32° 2' 7""""S  61°10'40""""W""",-61.17777778,-32.03527778,41,Metros,Galvez,4,E,PUBLICO,NOCONTROL,RACE,CIVIL,Nacional,NO,NO,SANTA FE
GRA,SAWE,RGA,Aerodromo,RIO GRANDE,"""53°46'39""""S  67°44'58""""W""",-67.74952,-53.7776,20,Metros,Rio Grande,9,NO,PUBLICO,CONTROL,RASU,,Internacional,SI,SI,TIERRA DEL FUEGO ANTARTIDA E ISLAS DEL ATLANTICO SUR
HEA,,,Helipuerto,HELIPLATAFORMA AM6,"""52°36'30""""S  68° 7'40""""W""",-68.127778,-52.608333,32,Metros,Cabo Virgenes,34,SE,PRIVADO,NOCONTROL,RASU,CIVIL,Nacional,NO,NO,TIERRA DEL FUEGO ANTARTIDA E ISLAS DEL ATLANTICO SUR
NEU,SAZN,NQN,Aerodromo,NEUQUEN/PRESIDENTE PERON,"""38°56'56""""S  68° 9'21""""W""",-68.15583333,-38.94888889,273,Metros,Neuquen,8,ONO,PUBLICO,CONTROL,RACE,,Internacional,SI,SI,NEUQUEN
SER,,,Aerodromo,SERODINO/FUMIGACIONES STANDLER,"""32°34'47""""S  60°54'34""""W""",-60.90944,-32.57978,37,Metros,Serodino,5,NE,PRIVADO,NOCONTROL,RACE,AEROAPP,Nacional,NO,NO,SANTA FE
CHM,SAHC,HOS,Aerodromo,CHOS MALAL,"""37°26'39""""S  70°13'23""""W""",-70.22305556,-37.44416667,850,Metros,Chos Malal,10,S,PUBLICO,NOCONTROL,RACE,CIVIL,Nacional,NO,NO,NEUQUEN
DAR,,,Aerodromo,DARREGUEIRA,"""37°42'44""""S  63° 9'45""""W""",-63.16253,-37.7122,198,Metros,Darregueira,1.5,SSO,PRIVADO,NOCONTROL,RACE,CIVIL,Nacional,NO,NO,BUENOS AIRES
HEV,,,Helipuerto,ALMIRANTE BROWN/DESTACAMENTO POLICIAL EL VAPOR,"""34°50' 5""""S  58°23' 6""""W""",-58.384984,-34.834672,28,Metros,Destacamento Policial El Vapor,0,Lindando,PUBLICO,NOCONTROL,RACE,CIVIL,Nacional,NO,NO,BUENOS AIRES
MEZ,,,Aerodromo,CORDOBA/LA MEZQUITA,"""31°24' 4""""S  64°18' 1""""W""",-64.3003,-31.40103,510,Metros,La Mezquita,6,O,PRIVADO,NOCONTROL,RANO,CIVIL,Nacional,NO,NO,CORDOBA
PLS,,,Aerodromo,PIRANE/EA. LA SALVACION,"""25°16'52""""S  58°56'16""""W""",-58.93781,-25.281,98,Metros,Pirane,52,NNE,PRIVADO,NOCONTROL,RANE,,Nacional,NO,NO,FORMOSA
SHP,,,Aerodromo,SAN ANTONIO DE ARECO/HARAS LA POMME,"""34°12'40""""S  59°23'30""""W""",-59.39154,-34.21122,28,Metros,San Antonio de Areco,6.5,NE,PRIVADO,NOCONTROL,RACE,,Nacional,NO,NO,BUENOS AIRES
BAI,,,Aerodromo,LAGO BUENOS AIRES,"""46°34'34""""S  70°56'53""""W""",-70.94805556,-46.57611111,387,Metros,Perito Moreno,2.5,NNO,PRIVADO,NOCONTROL,RASU,CIVIL,Nacional,NO,NO,SANTA CRUZ
BOL,SAVB,EHL,Aerodromo,EL BOLSON,"""41°56'36""""S  71°31'56""""W""",-71.53215,-41.94323,348,Metros,El Bolson,0,Lindando,PUBLICO,AERADIO,RASU,CIVIL,Nacional,NO,NO,RIO NEGRO
CLT,,CCT,Aerodromo,COLONIA CATRIEL,"""37°54'29""""S  67°49'44""""W""",-67.82881,-37.90819,313,Metros,Catriel,4,SSO,PUBLICO,NOCONTROL,RACE,CIVIL,Nacional,NO,NO,RIO NEGRO
HSR,,,Helipuerto,SANTA CRUZ/EA. SAN RAMON,"""50°18'11""""S  69°55' 4""""W""",-69.917664,-50.303036,374,Metros,Puerto Santa Cruz,104,SO,PRIVADO,NOCONTROL,RASU,CIVIL,Nacional,NO,NO,SANTA CRUZ
PAR,SAAP,PRA,Aerodromo,PARANA/GRAL. URQUIZA,"""31°47'41""""S  60°28'49""""W""",-60.48027778,-31.79472222,74,Metros,Parana,7.5,SE,PUBLICO,CONTROL,RACE,,Nacional,SI,SI,ENTRE RIOS
BLN,,,Aerodromo,LONDRES/BELEN,"""27°42'29""""S  67° 5'42""""W""",-67.095,-27.70805556,1200,Metros,Belen,2,NE,PRIVADO,NOCONTROL,RANO,,Nacional,NO,NO,CATAMARCA
HAU,,,Helipuerto,BUENOS AIRES/AUTODROMO CIUDAD DE BS. AS.,"""34°41'38""""S  58°27'38""""W""",-58.460425,-34.693918,16,Metros,,0,Lindando,PRIVADO,NOCONTROL,RACE,CIVIL,Nacional,NO,NO,CIUDAD AUTONOMA DE BUENOS AIRES
HBI,,,Helipuerto,CORDOBA/HELIPUERTO CENTRO CIVICO BICENTENARIO,"""31°25'13""""S  64°10'24""""W""",-64.173382,-31.420398,392,Metros,Aeropuerto,12,SSE,PRIVADO,NOCONTROL,RANO,CIVIL,Nacional,NO,NO,CORDOBA
HVM,,,Helipuerto,VILLA MARTELLI/CITEFA,"""34°33'28""""S  58°30'20""""W""",-58.505501,-34.557728,17,Metros,Zufriategui,,0,Lindando,PRIVADO,NOCONTROL,RACE,CIVIL,Nacional,NO,NO
TDB,,,Aerodromo,EL TREBOL/DE BERNARDO,"""32°15' 2""""S  61°39' 6""""W""",-61.65166667,-32.25055556,87,Metros,El Trebol,7,SE,PRIVADO,NOCONTROL,RACE,AEROAPP,Nacional,NO,NO,SANTA FE
ZLM,,,Aerodromo,BELL VILLE/LA ZULEMA,"""32°29'23""""S  62°40'17""""W""",-62.67138889,-32.48972222,129,Metros,Bell Ville,13,N,PRIVADO,NOCONTROL,RANO,AEROAPP,Nacional,NO,NO,CORDOBA
CHC,,,Aerodromo,CHAJARI/EA. LA CHOZA,"""30°32'20""""S  58°17'34""""W""",-58.29287,-30.53899,72,Metros,Chajari,39,NO,PRIVADO,NOCONTROL,RACE,CIVIL,Nacional,NO,NO,ENTRE RIOS
ELL,,,Aerodromo,MAR DEL SUR/EA. LUCILA,"""38°18'31""""S  58° 6'18""""W""",-58.105,-38.30861111,22,Metros,Mar del Sur,5,SE,PRIVADO,NOCONTROL,RACE,,Nacional,NO,NO,BUENOS AIRES
IJC,SAVJ,IGB,Aerodromo,INGENIERO JACOBACCI/CABO F.A.A. H. R. BORDON,"""41°19'16""""S  69°34'34""""W""",-69.57611111,-41.32111111,892,Metros,Ingeniero Jacobacci,2.5,ONO,PUBLICO,AERADIO,RASU,CIVIL,Nacional,NO,NO,RIO NEGRO
MAQ,SAVQ,MQD,Aerodromo,MAQUINCHAO,"""41°14'34""""S  68°42'30""""W""",-68.70828,-41.24288,880,Metros,Maquinchao,0,NE,PUBLICO,NOCONTROL,RASU,,Nacional,NO,NO,RIO NEGRO
PRA,,,Aerodromo,PRESIDENTE ROCA/EA. LA LEONOR,"""26° 8'16""""S  59°39'50""""W""",-59.66378,-26.13774,87,Metros,Presidencia Roca,7,O,PRIVADO,NOCONTROL,RANE,,Nacional,NO,NO,CHACO
RCR,,,Aerodromo,RIO TERCERO,"""32°10'22""""S  64° 5'18""""W""",-64.08833333,-32.17277778,380,Metros,Rio Tercero,1.5,E,PUBLICO,NOCONTROL,RANO,,Nacional,NO,NO,CORDOBA
CHT,,,Aerodromo,CHARATA/EL GRINGO,"""27°18'23""""S  61°12'37""""W""",-61.21041,-27.30629,92,Metros,Charata,10,S,PRIVADO,NOCONTROL,RANE,CIVIL,Nacional,NO,NO,CHACO
CSJ,,,Aerodromo,MORTEROS/CAMPO SAN JOSE,"""30°46'37""""S  62° 0'53""""W""",-62.01466,-30.77697,101,Metros,Morteros,6,SO,PRIVADO,NOCONTROL,RANO,AEROAPP,Nacional,NO,NO,CORDOBA
CVV,,,Aerodromo,VILLA VALERIA,"""34°21'23""""S  64°54' 4""""W""",-64.90111111,-34.35638889,290,Metros,Villa Valeria,2,SE,PRIVADO,NOCONTROL,RANO,AEROAPP,Nacional,NO,NO,CORDOBA
MCP,,,Aerodromo,MONTE CASEROS/EL PILINCHO,"""30°23'14""""S  57°58' 6""""W""",-57.96833333,-30.38722222,71,Metros,Monte Caseros,35,OSO,PRIVADO,NOCONTROL,RANE,,Nacional,NO,NO,CORRIENTES
DOF,,,Aerodromo,MARTINEZ DE HOZ/FUMIGACIONES ORTEGA,"""35°16'41""""S  61°33'13""""W""",-61.55366,-35.27799,89,Metros,Coronel Martinez de Hoz,8,ENE,PRIVADO,NOCONTROL,RACE,AEROAPP,Nacional,NO,NO,BUENOS AIRES
EMA,SAVD,EMX,Aerodromo,EL MAITEN,"""42° 1'48""""S  71°10'15""""W""",-71.17083333,-42.03,718,Metros,El Maiten,3,N,PUBLICO,AERADIO,RASU,CIVIL,Nacional,NO,NO,CHUBUT
GYT,,,Aerodromo,GOBERNADOR GARMENDIA/AGRO SERVICIO YORIS,"""26°34'45""""S  64°31'43""""W""",-64.52869,-26.57916,318,Metros,Gobernador Garmendia,3,E,PRIVADO,NOCONTROL,RANO,AEROAPP,Nacional,NO,NO,TUCUMAN
HPS,,,Helipuerto,PACHON/HELIPUERTO PACHON MINERA S.A.,"""31°45'36""""S  70°24'44""""W""",-70.41209,-31.760056,3600,Metros,Pachon,0,Lindando,PRIVADO,NOCONTROL,RANO,,Nacional,NO,NO,SAN JUAN
VNR,,,Aerodromo,VILLA NUEVA/RAIG SA,"""32°26'17""""S  63°17'22""""W""",-63.28930556,-32.43816667,206,Metros,Villa Maria,5,SO,PRIVADO,NOCONTROL,RANO,AEROAPP,Nacional,NO,NO,CORDOBA
EZE,SAEZ,EZE,Aerodromo,EZEIZA/MINISTRO PISTARINI,"""34°49'20""""S  58°32' 9""""W""",-58.53583333,-34.82222222,20.5,Metros,Capital Federal,22,SSO,PUBLICO,CONTROL,RACE,CIVIL,Internacional,SI,SI,BUENOS AIRES
HTA,,,Helipuerto,CONCEPCION DEL URUGUAY/HELIPUERTO TALITAS,"""32°32'53""""S  58°14'27""""W""",-58.240705,-32.548188,8,Metros,Concepcion del Uruguay,17,SSO,PRIVADO,NOCONTROL,RACE,CIVIL,Nacional,NO,NO,ENTRE RIOS
PSA,,,Aerodromo,PIGÜE/SERVICIOS AERONAUTICOS,"""37°31'23""""S  62°27' 8""""W""",-62.45231389,-37.52304444,247,Metros,Pigüe,9,NNO,PRIVADO,NOCONTROL,RACE,CIVIL,Nacional,NO,NO,BUENOS AIRES
VDO,,,Aerodromo,EL CORCOVADO,"""43°31'58""""S  71°29' 9""""W""",-71.48582,-43.53287,600,Metros,,0,Lindando,PRIVADO,NOCONTROL,RASU,CIVIL,Nacional,NO,NO,CHUBUT
CCA,SATU,UZU,Aerodromo,CURUZU CUATIA,"""29°46'21""""S  57°58'58""""W""",-57.98277778,-29.7725,70,Metros,Curuzu Cuatia,4,ENE,PUBLICO,AERADIO,RANE,CIVIL,Nacional,NO,NO,CORRIENTES
GYA,,,Aerodromo,GOYA/AEROCLUB,"""29°10'11""""S  59°14'49""""W""",-59.24699,-29.16975,38,Metros,Goya,1.5,SE,PRIVADO,NOCONTROL,RANE,CIVIL,Nacional,NO,NO,CORRIENTES
HUI,,,Aerodromo,HUINCA RENANCO,"""34°49'13""""S  64°22'27""""W""",-64.37412,-34.82041,180,Metros,Huinca Renanco,2,N,PUBLICO,NOCONTROL,RACE,CIVIL,Nacional,NO,NO,CORDOBA
HVA,,,Helipuerto,TIGRE/VILLA LA ÑATA,"""34°22'31""""S  58°39'21""""W""",-58.655755,-34.375231,3,Metros,Estacion FFCC Tigre,8.6,NO,PRIVADO,NOCONTROL,RACE,CIVIL,Nacional,NO,NO,BUENOS AIRES
UIS,SAOU,LUQ,Aerodromo,SAN LUIS/BRIG. MAYOR D. CESAR RAUL OJEDA,"""33°16'20""""S  66°21'24""""W""",-66.35666667,-33.27222222,710,Metros,San Luis,3.8,NO,PUBLICO,CONTROL,RANO,,Nacional,SI,SI,SAN LUIS
BAD,,,Aerodromo,BERON DE ASTRADA/DINALUCA S.A.,"""27°22'58""""S  57°38'39""""W""",-57.64416667,-27.38277778,67,Metros,Beron de Astrada,21,NNO,PRIVADO,NOCONTROL,RANE,CIVIL,Nacional,NO,NO,CORRIENTES
MDP,SAZM,MDQ,Aerodromo,MAR DEL PLATA/ASTOR PIAZZOLLA,"""37°56' 3""""S  57°34'24""""W""",-57.57333333,-37.93416667,22,Metros,Mar del Plata,7,N,PUBLICO,CONTROL,RACE,,Internacional,SI,SI,BUENOS AIRES
PBO,,,Aerodromo,POSADAS/BONETTI,"""27°36'24""""S  55°51'54""""W""",-55.86498,-27.60678,141,Metros,Parada Leis,3,O,PRIVADO,NOCONTROL,RANE,,Nacional,NO,NO,MISIONES
SEN,,,Aerodromo,CORONEL BRANDSEN,"""35°10'54""""S  58°17'43""""W""",-58.29517,-35.18174,16,Metros,Coronel Brandsen,5,O,PRIVADO,NOCONTROL,RACE,CIVIL,Nacional,NO,NO,BUENOS AIRES
HCI,,,Helipuerto,BELEN DE ESCOBAR/CABAÑA SAN ISIDRO LABRADOR I,"""34°22'43""""S  58°47'19""""W""",-58.78852,-34.378674,12,Metros,Belen de Escobar,3,SSE,PRIVADO,NOCONTROL,RACE,CIVIL,Nacional,NO,NO,BUENOS AIRES
ICO,,,Aerodromo,COMODORO RIVADAVIA/13 DE DICIEMBRE,"""45°54'15""""S  67°33'32""""W""",-67.55888889,-45.90416667,52,Metros,Comodoro Rivadavia,8,SSO,PUBLICO,NOCONTROL,RASU,CIVIL,Nacional,NO,NO,CHUBUT
SFN,,,Aerodromo,SELVA NUEVA/FUMIGACIONES NANDO S.H.,"""29°46'45""""S  62° 1'52""""W""",-62.03107,-29.77908,86,Metros,Selva,2,SE,PRIVADO,NOCONTROL,RANO,AEROAPP,Nacional,NO,NO,SANTIAGO DEL ESTERO
EGO,,,Aerodromo,LAS PAREJAS/EL GAUCHO,"""32°37'46""""S  61°32'40""""W""",-61.54444444,-32.62944444,105,Metros,Las Parejas,6,NNO,PRIVADO,NOCONTROL,RACE,CIVIL,Nacional,NO,NO,SANTA FE
LPR,,,Aerodromo,LAPRIDA,"""37°31'15""""S  60°46'42""""W""",-60.77833333,-37.52083333,210,Metros,Laprida,2,NE,PUBLICO,NOCONTROL,RACE,CIVIL,Nacional,NO,NO,BUENOS AIRES
NPA,,,Aerodromo,NECOCHEA/PULVERIZACIONES AEROSUR,"""38°34'31""""S  58°47'42""""W""",-58.795,-38.57527778,15,Metros,Necochea,5.5,SO,PRIVADO,NOCONTROL,RACE,AEROAPP,Nacional,NO,NO,BUENOS AIRES
RVD,,,Aerodromo,RIVADAVIA,"""33°13'42""""S  68°28'27""""W""",-68.47406,-33.22834,659,Metros,Rivadavia,3,S,PUBLICO,NOCONTROL,RANO,,Nacional,NO,NO,MENDOZA
BTS,,,Aerodromo,CORRAL DE BUSTOS,"""33°16'53""""S  62° 9' 5""""W""",-62.15138889,-33.28138889,120,Metros,Corral de Bustos,2,O,PRIVADO,NOCONTROL,RACE,CIVIL,Nacional,NO,NO,CORDOBA
SJA,,,Aerodromo,SAN JUAN/AEROCLUB,"""31°36'11""""S  68°32'50""""W""",-68.54722222,-31.60305556,634,Metros,San Juan,7,S,PUBLICO,NOCONTROL,RANO,CIVIL,Nacional,NO,NO,SAN JUAN
BEX,,,Aerodromo,BARADERO,"""33°51'31""""S  59°28' 9""""W""",-59.46911,-33.85864,26,Metros,Pueblo Alsina,9,NO,PRIVADO,NOCONTROL,RACE,ULM,Nacional,NO,NO,BUENOS AIRES
BLC,,,Aerodromo,BALCARCE/EA. LOS CARDOS,"""37°44' 7""""S  58° 2'18""""W""",-58.03821,-37.73529,120,Metros,Balcarce,21,NE,PRIVADO,NOCONTROL,RACE,CIVIL,Nacional,NO,NO,BUENOS AIRES
IAA,,,Aerodromo,INTENDENTE ALVEAR/AZCARATE IRATORSA,"""35°11'19""""S  63°36'38""""W""",-63.61052,-35.18862,127,Metros,Intendente Alvear,5,NNO,PRIVADO,NOCONTROL,RACE,AEROAPP,Nacional,NO,NO,LA PAMPA
PLL,,,Aerodromo,PUJATO/LA LUCIA,"""33° 0'33""""S  61° 3'46""""W""",-61.06286,-33.00928,73,Metros,Pujato,1.5,NO,PRIVADO,NOCONTROL,RACE,,Nacional,NO,NO,SANTA FE
AGR,,,Aerodromo,ALTA GRACIA,"""31°39' 4""""S  64°23'38""""W""",-64.39388889,-31.65111111,533,Metros,Alta Gracia,2,E,PUBLICO,NOCONTROL,RANO,CIVIL,Nacional,NO,NO,CORDOBA
AVA,,,Aerodromo,ALVEAR/AEROPARQUE ROSARIO,"""33° 2'49""""S  60°35'51""""W""",-60.59756,-33.04691,26,Metros,Alvear,2.5,ENE,PUBLICO,NOCONTROL,RACE,CIVIL,Nacional,NO,NO,SANTA FE
GCR,,,Aerodromo,GOBERNADOR CRESPO/AEROCLUB,"""30°23'14""""S  60°22' 9""""W""",-60.36916667,-30.38722222,52,Metros,Gobernador Crespo,4.5,SE,PUBLICO,NOCONTROL,RANO,CIVIL,Nacional,NO,NO,SANTA FE
HRM,,,Helipuerto,SAN MARTIN DE LOS ANDES/RANCHO DE MONTAÑA,"""40° 9' 8""""S  71°17' 7""""W""",-71.285379,-40.152264,1005,Metros,San Martin de los Andes,5,E,PRIVADO,NOCONTROL,RACE,CIVIL,Nacional,NO,NO,NEUQUEN
HRW,,,Helipuerto,RIO GRANDE/EA. RIO EWAN,"""54°14' 1""""S  67°12'48""""W""",-67.21324,-54.23355,33.7,Metros,Rio Grande,59,SE,PRIVADO,NOCONTROL,RASU,CIVIL,Nacional,NO,NO,TIERRA DEL FUEGO ANTARTIDA E ISLAS DEL ATLANTICO SUR
ILD,,,Aerodromo,CASILDA,"""33° 3'45""""S  61°12'35""""W""",-61.20973,-33.06242,77,Metros,Casilda,3,ONO,PUBLICO,NOCONTROL,RACE,CIVIL,Nacional,NO,NO,SANTA FE
PAL,SADP,EPA,Aerodromo,EL PALOMAR,"""34°36'36""""S  58°36'45""""W""",-58.6125,-34.61,18,Metros,El Palomar,1.5,Lindando,PUBLICO,CONTROL,RACE,JOINT,Nacional,SI,NO,BUENOS AIRES
SQI,,,Aerodromo,CAÑADA ROSQUIN,"""32° 6'20""""S  61°36'49""""W""",-61.61348,-32.10557,67,Metros,Cañada Rosquin,5,S,PRIVADO,NOCONTROL,RACE,CIVIL,Nacional,NO,NO,SANTA FE
ILM,SADQ,,Aerodromo,QUILMES,"""34°42'23""""S  58°14'41""""W""",-58.24461,-34.70643,2,Metros,Quilmes,2,ENE,PRIVADO,AERADIO,RACE,,Nacional,NO,NO,BUENOS AIRES
VNS,,,Aerodromo,VILLA NUEVA/SUAREZ AVIACION,"""32°25'37""""S  63°18' 8""""W""",-63.30222222,-32.42694444,207,Metros,Villa Nueva,6,OSO,PRIVADO,NOCONTROL,RANO,AEROAPP,Nacional,NO,NO,CORDOBA
CLI,,,Aerodromo,CALILEGUA,"""23°46'54""""S  64°44'59""""W""",-64.74972222,-23.78166667,442,Metros,Calilegua,1.7,E,PRIVADO,NOCONTROL,RANO,CIVIL,Nacional,NO,NO,JUJUY
HAD,,,Helipuerto,HELIPLATAFORMA AM2,"""52°32'56""""S  68°18'45""""W""",-68.3125,-52.548889,44,Metros,Estrecho de Magallanes,0,Lindando,PRIVADO,NOCONTROL,RASU,CIVIL,Nacional,NO,NO,TIERRA DEL FUEGO ANTARTIDA E ISLAS DEL ATLANTICO SUR
HJN,,,Helipuerto,JUNIN DE LOS ANDES/EA. PALITUE,"""39°51'10""""S  71° 2'47""""W""",-71.046426,-39.852774,859,Metros,Junin de los Andes,10,N,PRIVADO,NOCONTROL,RACE,CIVIL,Nacional,NO,NO,NEUQUEN
JRZ,SAZJ,,Aerodromo,JUAREZ,"""37°42'22""""S  59°47'31""""W""",-59.79194444,-37.70611111,212,Metros,Benito Juarez,3,SSO,PUBLICO,NOCONTROL,RACE,CIVIL,Nacional,NO,NO,BUENOS AIRES
MTN,,,Aerodromo,METAN,"""25°30'51""""S  64°57'56""""W""",-64.96555556,-25.51416667,843,Metros,Metan,2,NO,PRIVADO,NOCONTROL,RANO,,Nacional,NO,NO,SALTA
SLY,,,Aerodromo,SALDUNGARAY/SANTO TOMAS DE LA SIERRA,"""38°14'30""""S  61°49'40""""W""",-61.82767,-38.24173,273,Metros,Saldungaray,5,SSO,PRIVADO,NOCONTROL,RACE,,Nacional,NO,NO,BUENOS AIRES
GTE,,,Aerodromo,GUATRACHE,"""37°42'19""""S  63°33'25""""W""",-63.55708,-37.70516,175,Metros,Guatrache,3,SSO,PUBLICO,NOCONTROL,RACE,CIVIL,Nacional,NO,NO,LA PAMPA
IVB,,,Aerodromo,ISLA VERDE/D. HECTOR BIONDI,"""33°14'48""""S  62°24'55""""W""",-62.41538,-33.24674,118,Metros,Isla Verde,1,SE,PUBLICO,NOCONTROL,RACE,CIVIL,Nacional,NO,NO,CORDOBA
OVJ,,,Aerodromo,LAS OVEJAS,"""36°59'57""""S  70°44'32""""W""",-70.74222222,-36.99916667,1200,Metros,Las Ovejas,1.5,SE,PUBLICO,NOCONTROL,RACE,CIVIL,Nacional,NO,NO,NEUQUEN
RYD,SAOR,VME,Aerodromo,VILLA REYNOLDS,"""33°43'54""""S  65°22'33""""W""",-65.37579,-33.73178,485,Metros,Villa Mercedes,9,SE,PUBLICO,CONTROL,RANO,,Nacional,SI,SI,SAN LUIS
HBA,,,Helipuerto,SAN CARLOS DE BARILOCHE/ARELAUQUEN,"""41° 9'40""""S  71°21'56""""W""",-71.36568,-41.161161,945,Metros,San Carlos de Bariloche,8,SO,PRIVADO,NOCONTROL,RACE,CIVIL,Nacional,NO,NO,RIO NEGRO
PEL,,,Aerodromo,LA PELADA,"""30°57'39""""S  60°53'13""""W""",-60.88698,-30.96087,44,Metros,La Pelada,13,SE,PRIVADO,NOCONTROL,RACE,CIVIL,Nacional,NO,NO,SANTA FE
SGI,,,Aerodromo,TRES ARROYOS/SANTAGIULIAN,"""38°24'30""""S  60°18' 4""""W""",-60.30111111,-38.40833333,104,Metros,Tres Arroyos,1.5,SSO,PRIVADO,NOCONTROL,RACE,AEROAPP,Nacional,NO,NO,BUENOS AIRES
HTD,,,Helipuerto,TANDIL/EA. LA PASCUALA,"""37°23'37""""S  58°57'59""""W""",-58.966403,-37.393711,220,Metros,Tandil,22.3,S,PRIVADO,NOCONTROL,RACE,CIVIL,Nacional,NO,NO,BUENOS AIRES
LAR,SANL,IRJ,Aerodromo,LA RIOJA/CAP. VICENTE A. ALMONACID,"""29°22'50""""S  66°47'45""""W""",-66.79583333,-29.38055556,438,Metros,La Rioja,7,NE,PUBLICO,CONTROL,RANO,CIVIL,Nacional,SI,SI,LA RIOJA
TRH,SANR,RHD,Aerodromo,TERMAS DE RIO HONDO,"""27°29'48""""S  64°56' 9""""W""",-64.93596,-27.49662,280.5,Metros,Termas de Rio Hondo,7.5,O,PUBLICO,CONTROL,RANO,CIVIL,Nacional,SI,SI,SANTIAGO DEL ESTERO
HHT,,,Helipuerto,DON TORCUATO/TECNOCOPTER S.A.,"""34°29'34""""S  58°36'25""""W""",-58.606915,-34.492668,20,Metros,Ex Aerodromo Don Torcuato,0,Lindando,PUBLICO,NOCONTROL,RACE,CIVIL,Nacional,NO,NO,BUENOS AIRES
RIN,SAHS,RDS,Aerodromo,RINCON DE LOS SAUCES,"""37°23'25""""S  68°54'16""""W""",-68.90444444,-37.39027778,600,Metros,Rincon de los Sauces,0,N,PRIVADO,NOCONTROL,RACE,,Nacional,NO,NO,NEUQUEN
JBA,,,Aerodromo,JUAN BAUTISTA ALBERDI,"""34°29' 1""""S  61°54'16""""W""",-61.90455,-34.48351,102,Metros,Juan Bautista Alberdi,10,SO,PRIVADO,NOCONTROL,RACE,AEROAPP,Nacional,NO,NO,BUENOS AIRES
GAL,SAWG,RGL,Aerodromo,RIO GALLEGOS/PILOTO CIVIL NORBERTO FERNANDEZ,"""51°36'32""""S  69°18'44""""W""",-69.31217,-51.60881,19,Metros,Rio Gallegos,4.5,OSO,PUBLICO,CONTROL,RASU,,Internacional,SI,SI,SANTA CRUZ
GBL,,,Aerodromo,SALTA/GENERAL BELGRANO,"""24°44'45""""S  65°25' 8""""W""",-65.41888889,-24.74583333,1261,Metros,Salta,3,N,PUBLICO,NOCONTROL,RANO,,Nacional,NO,NO,SALTA
MCO,,,Aerodromo,LOS MENUCOS,"""40°48'57""""S  68° 4'19""""W""",-68.07203,-40.81596,784,Metros,Los Menucos,3,SO,PUBLICO,NOCONTROL,RASU,,Nacional,NO,NO,RIO NEGRO
UAE,,,Aerodromo,GUALEGUAY/AEROCLUB,"""33° 6' 8""""S  59°22'26""""W""",-59.37388889,-33.10222222,13,Metros,Gualeguay,8,NO,PUBLICO,NOCONTROL,RACE,CIVIL,Nacional,NO,NO,ENTRE RIOS
GOZ,,,Aerodromo,GOMEZ,"""35° 5'44""""S  58° 5' 9""""W""",-58.0858,-35.09556,19,Metros,Gomez,8,SE,PUBLICO,NOCONTROL,RACE,CIVIL,Nacional,NO,NO,BUENOS AIRES
HMQ,,,Helipuerto,HELIPLATAFORMA AM5,"""52°34'14""""S  68°15'12""""W""",-68.253333,-52.570556,30,Metros,Estrecho de Magallanes,0,Lindando,PRIVADO,NOCONTROL,RASU,CIVIL,Nacional,NO,NO,TIERRA DEL FUEGO ANTARTIDA E ISLAS DEL ATLANTICO SUR
OMA,,,Aerodromo,LOMA LA LATA,"""38°24'50""""S  68°44'14""""W""",-68.73715,-38.41383,405,Metros,Neuquen,80,NO,PRIVADO,NOCONTROL,RACE,,Nacional,NO,NO,NEUQUEN
HOC,,,Helipuerto,HELIPLATAFORMA OCEANIC CHAMPION,"""52°50' 0""""S  66°25' 0""""W""",-66.41666667,-52.83333333,20,Metros,Rio Grande,138.9,,PRIVADO,NOCONTROL,RASU,,Nacional,NO,NO,TIERRA DEL FUEGO ANTARTIDA E ISLAS DEL ATLANTICO SUR
HPL,,,Helipuerto,LA RIOJA/HELIPUERTO POLICIA PROVINCIAL C.A.P.E.,"""29°26' 8""""S  66°51'48""""W""",-66.863203,-29.435592,520,Metros,La Rioja,2.6,SSO,PRIVADO,NOCONTROL,RANO,CIVIL,Nacional,NO,NO,LA RIOJA
HPU,,,Helipuerto,PUELCHES/TRANSENER S.A.,"""38° 8'52""""S  65°49'30""""W""",-65.824946,-38.147703,229,Metros,Puelches,8,E,PRIVADO,NOCONTROL,RACE,CIVIL,Nacional,NO,NO,LA PAMPA
JUJ,SASJ,JUJ,Aerodromo,JUJUY/GOBERNADOR GUZMAN,"""24°23'33""""S  65° 5'52""""W""",-65.09777778,-24.3925,920,Metros,San Salvador de Jujuy,33,SE,PUBLICO,CONTROL,RANO,CIVIL,Internacional,SI,SI,JUJUY
SJR,,,Aerodromo,SAN JAVIER/AEROCLUB,"""30°33'21""""S  59°59'26""""W""",-59.99069,-30.55586,23,Metros,San Javier,6.5,ONO,PRIVADO,NOCONTROL,RACE,CIVIL,Nacional,NO,NO,SANTA FE
CSU,,,Aerodromo,CHAJARI/SUR,"""30°48' 8""""S  58° 0'51""""W""",-58.01428056,-30.80216944,69,Metros,Chajari,5,SSW,PRIVADO,NOCONTROL,RACE,CIVIL,Nacional,NO,NO,ENTRE RIOS
CUT,SAZW,CUT,Aerodromo,CUTRAL-CO,"""38°56'23""""S  69°15'54""""W""",-69.265,-38.93972222,650,Metros,Cutral Co,2,OSO,PUBLICO,AERADIO,RACE,CIVIL,Nacional,SI,NO,NEUQUEN
HCS,,,Helipuerto,CAPILLA DEL SEÑOR/LAS ARAUCARIAS,"""34°18'25""""S  59°10'13""""W""",-59.170276,-34.307048,25,Metros,Capilla del Señor,6.5,O,PRIVADO,NOCONTROL,RACE,CIVIL,Nacional,NO,NO,BUENOS AIRES
ORA,SASO,ORA,Aerodromo,ORAN,"""23° 9' 8""""S  64°19'44""""W""",-64.3288,-23.15221,357,Metros,San Ramon de la Nueva Oran,2.5,S,PUBLICO,AERADIO,RANO,,Nacional,NO,NO,SALTA
PDP,,,Aerodromo,PRESIDENCIA ROCA/EA. DON PANOS,"""26°17'45""""S  59°32' 7""""W""",-59.53539,-26.29586,80,Metros,Presidencia Roca,16,SSE,PRIVADO,AERADIO,RANE,,Nacional,NO,NO,CHACO
SNT,SAAA,,Aerodromo,SAN ANTONIO DE ARECO,"""34°13'11""""S  59°26'21""""W""",-59.43911,-34.2198,30,Metros,San Antonio de Areco,3,NE,PUBLICO,NOCONTROL,RACE,,Nacional,NO,NO,BUENOS AIRES
CDS,,,Aerodromo,CAÑADON SECO,"""46°32'17""""S  67°33'35""""W""",-67.55972222,-46.53805556,90,Metros,Cañadon Seco,5,NE,PRIVADO,NOCONTROL,RASU,CIVIL,Nacional,NO,NO,SANTA CRUZ
CIT,,,Aerodromo,CORRIENTES/ITATI,"""27°18'12""""S  58°18'55""""W""",-58.31527778,-27.30333333,60,Metros,Itati,8,OSO,PRIVADO,NOCONTROL,RANE,AEROAPP,Nacional,NO,NO,CORRIENTES
CLH,SAVH,LHS,Aerodromo,LAS HERAS,"""46°32'19""""S  68°57'57""""W""",-68.96583,-46.53848,330,Metros,Las Heras,2,O,PUBLICO,NOCONTROL,RASU,CIVIL,Nacional,NO,NO,SANTA CRUZ
NEI,,,Aerodromo,NECOCHEA/IRIBERRI,"""38°28'44""""S  58°48'16""""W""",-58.80453,-38.47884,33,Metros,Necochea,10,NO,PRIVADO,NOCONTROL,RACE,AEROAPP,Nacional,NO,NO,BUENOS AIRES
MAO,,,Aerodromo,VEINTICINCO DE MAYO,"""37°48'35""""S  67°39'34""""W""",-67.65938,-37.80974,347,Metros,25 de Mayo,7.5,ESE,PRIVADO,NOCONTROL,RACE,CIVIL,Nacional,NO,NO,LA PAMPA
ROP,,,Aerodromo,ROSARIO/PUEBLO ESTHER,"""33° 4'54""""S  60°33'53""""W""",-60.56472222,-33.08166667,25,Metros,Pueblo Esther,1,SE,PUBLICO,NOCONTROL,RACE,,Nacional,NO,NO,SANTA FE
SAF,,,Aerodromo,SAFORCADA/PARAJON,"""34°34'35""""S  61° 0'20""""W""",-61.00568,-34.57637,84,Metros,Saforcada,6,E,PRIVADO,NOCONTROL,RACE,AEROAPP,Nacional,NO,NO,BUENOS AIRES
VMC,,,Aerodromo,VICUÑA MACKENNA/COMEQUECHEN,"""33°56' 2""""S  64°24'57""""W""",-64.41595,-33.934,243,Metros,Vicuña Mackenna,3,SO,PRIVADO,NOCONTROL,RACE,AEROAPP,Nacional,NO,NO,CORDOBA
FRS,,,Aerodromo,FRIAS,"""28°37'43""""S  65° 6'48""""W""",-65.11333333,-28.62861111,330,Metros,Frias,2,NE,PUBLICO,NOCONTROL,RANO,CIVIL,Nacional,NO,NO,SANTIAGO DEL ESTERO
STD,,,Aerodromo,STROEDER,"""40°12'37""""S  62°37' 3""""W""",-62.61747,-40.21038,28,Metros,Stroeder,1.5,S,PUBLICO,NOCONTROL,RASU,,Nacional,NO,NO,BUENOS AIRES
CDU,,,Aerodromo,CONCEPCION DEL URUGUAY,"""32°27'18""""S  58°18'24""""W""",-58.30666667,-32.455,34,Metros,Concepcion del Uruguay,8,NO,PUBLICO,NOCONTROL,RACE,CIVIL,Nacional,NO,NO,ENTRE RIOS
HPC,,,Helipuerto,CORDOBA/POLICIA PROVINCIA DE CORDOBA,"""31°24'30""""S  64°11'58""""W""",-64.199434,-31.40821,393,Metros,Cordoba,0,O,PUBLICO,NOCONTROL,RANO,CIVIL,Nacional,NO,NO,CORDOBA
HSC,,,Helipuerto,SPEGAZZINI/CENTRAL TERMICA,"""34°54' 7""""S  58°36'56""""W""",-58.61566667,-34.90202778,17,Metros,Carlos Spegazzini,2.2,NW,PRIVADO,NOCONTROL,RACE,CIVIL,Nacional,NO,NO,BUENOS AIRES
FAE,,,Aerodromo,FIRMAT/AEROCLUB,"""33°25'45""""S  61°30'40""""W""",-61.51124,-33.42909,105,Metros,Firmat,3,NO,PRIVADO,NOCONTROL,RACE,CIVIL,Nacional,NO,NO,SANTA FE
HLR,,,Helipuerto,LOS CARDALES/LA RESERVA,"""34°16'14""""S  58°54' 2""""W""",-58.900427,-34.270449,6,Metros,Los Cardales,10,NE,PRIVADO,NOCONTROL,RACE,CIVIL,Nacional,NO,NO,BUENOS AIRES
HUG,,,Aerodromo,HUANGUELEN,"""37° 3'10""""S  61°57'12""""W""",-61.95324,-37.05267,158,Metros,Huanguelen,2,N,PRIVADO,NOCONTROL,RACE,CIVIL,Nacional,NO,NO,BUENOS AIRES
NIN,SAAJ,JNI,Aerodromo,JUNIN,"""34°32'45""""S  60°55'50""""W""",-60.93051,-34.54589,80,Metros,Junin,6.5,NNE,PUBLICO,AERADIO,RACE,CIVIL,Nacional,SI,NO,BUENOS AIRES
HIT,,,Helipuerto,ITUZAINGO/TRANSENER,"""27°33'31""""S  56°39'30""""W""",-56.658294,-27.558575,71,Metros,Ituzaingo,4,NNE,PRIVADO,NOCONTROL,RANE,CIVIL,Nacional,NO,NO,CORRIENTES
PUP,,,Aerodromo,PUJATO/PETTILEP,"""33° 0'28""""S  61° 1' 4""""W""",-61.01765,-33.0077,61,Metros,Pujato,3,E,PRIVADO,NOCONTROL,RACE,AEROAPP,Nacional,NO,NO,SANTA FE
RST,,,Aerodromo,CAÑADA ROSQUIN/STIEFEL,"""31°59'41""""S  61°36'10""""W""",-61.60277778,-31.99472222,71,Metros,Cañada Rosquin,6.5,N,PRIVADO,NOCONTROL,RANO,AEROAPP,Nacional,NO,NO,SANTA FE
CTS,,,Aerodromo,CAPITAN SARMIENTO,"""34° 9'52""""S  59°43'53""""W""",-59.73148,-34.16435,49,Metros,Capitan Sarmiento,3,E,PUBLICO,NOCONTROL,RACE,CIVIL,Nacional,NO,NO,BUENOS AIRES
HCL,,,Helipuerto,CATAN LIL/EA. SANTA ISABEL,"""39°53' 5""""S  70°30'50""""W""",-70.513907,-39.884782,950,Metros,Departamento de Collon Cura,0,Lindando,PRIVADO,NOCONTROL,RACE,CIVIL,Nacional,NO,NO,NEUQUEN
SDL,,,Aerodromo,SALADILLO,"""35°36'16""""S  59°49' 0""""W""",-59.81676,-35.60439,45,Metros,Saladillo,4,NE,PUBLICO,NOCONTROL,RACE,,Nacional,NO,NO,BUENOS AIRES
SMC,,,Aerodromo,SANTA MARIA,"""26°40'26""""S  66° 1'29""""W""",-66.02481,-26.67385,1800,Metros,Santa Maria,2,ENE,PRIVADO,NOCONTROL,RANO,,Nacional,NO,NO,CATAMARCA
SMF,,,Aerodromo,SAN MARTIN/FINCA LA FRONTERA,"""22° 7'25""""S  63°17'26""""W""",-63.29064,-22.12362,49,Metros,Aguaray,49,NE,PRIVADO,NOCONTROL,RANO,,Nacional,NO,NO,SALTA
BCA,SAZB,BHI,Aerodromo,BAHIA BLANCA/COMANDANTE ESPORA,"""38°43'39""""S  62° 9'12""""W""",-62.15333333,-38.7275,75,Metros,Bahia Blanca,10,E,PUBLICO,CONTROL,RACE,JOINT,Nacional,SI,NO,BUENOS AIRES
ELZ,,,Aerodromo,ELIZALDE,"""34°58'30""""S  57°57'45""""W""",-57.9625,-34.975,7,Metros,Rufino de Elizalde,2,SSO,PUBLICO,NOCONTROL,RACE,CIVIL,Nacional,NO,NO,BUENOS AIRES
OLA,SAZF,OVR,Aerodromo,OLAVARRIA,"""36°53'20""""S  60°13'40""""W""",-60.22777778,-36.88888889,168,Metros,Olavarria,11,ENE,PUBLICO,AERADIO,RACE,,Nacional,NO,NO,BUENOS AIRES
HCC,,,Helipuerto,CHOEL  CHOEL/TRANSENER S.A.,"""39°33'60""""S  65°41'20""""W""",-65.68877,-39.566662,130,Metros,Lamarque,16,S,PRIVADO,NOCONTROL,RACE,CIVIL,Nacional,NO,NO,RIO NEGRO
HUM,,,Aerodromo,HUMBOLDT/ESTABLECIMIENTO LA ADELITA,"""31°23'23""""S  61° 8'33""""W""",-61.14256,-31.38986,50,Metros,Humboldt,5.5,O,PRIVADO,NOCONTROL,RACE,AEROAPP,Nacional,NO,NO,SANTA FE
RGR,,,Aerodromo,RIO GALLEGOS/RIO CHICO,"""51°40' 7""""S  69°15'37""""W""",-69.26027778,-51.66861111,21,Metros,Rio Chico,5,SO,PRIVADO,NOCONTROL,RASU,,Nacional,NO,NO,SANTA CRUZ
RTA,SATR,RCQ,Aerodromo,RECONQUISTA,"""29°12'37""""S  59°40'48""""W""",-59.68,-29.21027778,49,Metros,Reconquista,7,S,PUBLICO,CONTROL,RANE,,Nacional,SI,SI,SANTA FE
ALC,,,Aerodromo,AMEGHINO/LA CHACRA,"""34°48'34""""S  62°31'23""""W""",-62.52293,-34.80942,109,Metros,Florentino Ameghino,7,NO,PRIVADO,NOCONTROL,RACE,CIVIL,Nacional,NO,NO,BUENOS AIRES
ALV,,,Aerodromo,ALVEAR/AGROALVEAR SRL,"""33° 4' 7""""S  60°40' 1""""W""",-60.66682,-33.06853,32,Metros,Alvear,4.5,O,PRIVADO,NOCONTROL,RACE,AEROAPP,Nacional,NO,NO,SANTA FE
CON,,,Aerodromo,COLON,"""33°55'21""""S  61° 2'47""""W""",-61.04638889,-33.9225,90,Metros,Colon,5,SE,PUBLICO,NOCONTROL,RACE,CIVIL,Nacional,NO,NO,BUENOS AIRES
HTE,,,Helipuerto,SALTA/TEMET,"""24°50'10""""S  65°22'20""""W""",-65.372347,-24.836242,1180,Metros,Salta,6.5,SE,PRIVADO,NOCONTROL,RANO,CIVIL,Nacional,NO,NO,SALTA
RES,,,Aerodromo,RESISTENCIA/AEROCLUB,"""27°37'52""""S  59°10'47""""W""",-59.17972222,-27.63111111,50,Metros,Resistencia,30,SSE,PUBLICO,AERADIO,RANE,,Nacional,NO,NO,CHACO
URO,,,Aerodromo,PEDRO LURO,"""39°27'21""""S  62°40'30""""W""",-62.675,-39.45583333,27,Metros,Pedro Luro,4,N,PUBLICO,NOCONTROL,RACE,,Nacional,NO,NO,BUENOS AIRES
LEO,,,Aerodromo,LEONES,"""32°38'34""""S  62°19' 1""""W""",-62.31681,-32.64264,114,Metros,Leones,3,NO,PRIVADO,NOCONTROL,RANO,CIVIL,Nacional,NO,NO,CORDOBA
ENV,,,Aerodromo,RIACHUELO/NUEVA VALENCIA,"""27°35'15""""S  58°49' 8""""W""",-58.819,-27.58744,57,Metros,Corrientes,13.5,S,PRIVADO,NOCONTROL,RANE,,Nacional,NO,NO,CORRIENTES
PNA,,,Aerodromo,PARANA/CLUB DE PLANEADORES,"""31°43'51""""S  60°13'12""""W""",-60.22,-31.73083333,46,Metros,Parana,29,E,PRIVADO,NOCONTROL,RACE,,Nacional,NO,NO,ENTRE RIOS
SNY,,,Aerodromo,SAN NICOLAS DE LOS ARROYOS,"""33°23'27""""S  60°11'44""""W""",-60.19555556,-33.39083333,30,Metros,San Nicolas de los Arroyos,6,SSE,PUBLICO,NOCONTROL,RACE,,Nacional,NO,NO,BUENOS AIRES
HCR,,,Helipuerto,BARREALES - GRAN MENDOZA/TRANSENER S.A.,"""33° 5'57""""S  68°34'46""""W""",-68.579397,-33.099208,674,Metros,Barreales,0,O,PRIVADO,NOCONTROL,RANO,CIVIL,Nacional,NO,NO,MENDOZA
HET,,,Helipuerto,SANTIAGO DEL ESTERO/HELIPUERTO EDIFICIO TRIBUNALES,"""27°46'53""""S  64°15'54""""W""",-64.265127,-27.781396,195,Metros,Av. H. Yrigoyen entre Av. Alvear y Chacabuco,0,,PRIVADO,NOCONTROL,RANO,,Nacional,NO,NO,SANTIAGO DEL ESTERO
MER,SADR,,Aerodromo,MERLO,"""34°40'35""""S  58°44'38""""W""",-58.74388889,-34.67638889,15,Metros,Merlo,2,SO,PRIVADO,NOCONTROL,RACE,,Nacional,NO,NO,BUENOS AIRES
UCO,,,Aerodromo,CHACABUCO,"""34°36'26""""S  60°24'35""""W""",-60.40972222,-34.60722222,69,Metros,Chacabuco,7,NE,PUBLICO,NOCONTROL,RACE,CIVIL,Nacional,NO,NO,BUENOS AIRES
VAL,,,Aerodromo,VALCHETA,"""40°41'57""""S  66° 9'26""""W""",-66.1573,-40.69909,192,Metros,Valcheta,1.5,SE,PUBLICO,NOCONTROL,RASU,,Nacional,NO,NO,RIO NEGRO
DIO,,,Aerodromo,TANDIL/COMANDANTE EDUARDO A. OLIVERO,"""37°20'48""""S  58°58'58""""W""",-58.98268,-37.34678,193,Metros,Tandil,15,ESE,PUBLICO,NOCONTROL,RACE,,Nacional,NO,NO,BUENOS AIRES
ELD,SATD,ELO,Aerodromo,ELDORADO,"""26°23'49""""S  54°34'29""""W""",-54.57472222,-26.39694444,209,Metros,Eldorado,5,NE,PUBLICO,AERADIO,RANE,CIVIL,Nacional,NO,NO,MISIONES
GPI,SAZG,GPO,Aerodromo,GENERAL PICO,"""35°41'41""""S  63°45'32""""W""",-63.75888889,-35.69472222,140,Metros,General Pico,3.5,SO,PUBLICO,AERADIO,RACE,CIVIL,Nacional,SI,SI,LA PAMPA
LLC,,,Aerodromo,LONGCHAMPS/LA CAIDA,"""34°51'45""""S  58°20'41""""W""",-58.34472222,-34.8625,28,Metros,Longchamps,4,E,PRIVADO,NOCONTROL,RACE,,Nacional,NO,NO,BUENOS AIRES
LLJ,,,Aerodromo,LAS LAJAS,"""38°32'18""""S  70°20'12""""W""",-70.3367,-38.53828,850,Metros,Las Lajas,3,SE,PUBLICO,NOCONTROL,RACE,CIVIL,Nacional,NO,NO,NEUQUEN
VIG,SAAU,,Aerodromo,VILLAGUAY,"""31°51' 2""""S  59° 4'23""""W""",-59.07305556,-31.85055556,40,Metros,Villaguay,5,NO,PRIVADO,NOCONTROL,RACE,,Nacional,NO,NO,ENTRE RIOS
ZAP,SAHZ,APZ,Aerodromo,ZAPALA,"""38°58'33""""S  70° 6'48""""W""",-70.11346389,-38.97588611,1048,Metros,Zapala,7.5,SO,PUBLICO,NOCONTROL,RACE,,Nacional,NO,NO,NEUQUEN
CAY,,,Aerodromo,SAN CAYETANO,"""38°20' 2""""S  59°37'49""""W""",-59.63027778,-38.33388889,100,Metros,San Cayetano,1.5,ONO,PRIVADO,NOCONTROL,RACE,,Nacional,NO,NO,BUENOS AIRES
FOR,,,Aerodromo,FORMOSA/AEROCLUB,"""26°18' 5""""S  58°17'54""""W""",-58.29833333,-26.30138889,70,Metros,Formosa,15,SO,PUBLICO,AERADIO,RANE,CIVIL,Nacional,NO,NO,FORMOSA
HUE,,,Aerodromo,CARHUE,"""37°11'38""""S  62°46'53""""W""",-62.78138889,-37.19388889,110,Metros,Carhue,1.5,SO,PRIVADO,NOCONTROL,RACE,CIVIL,Nacional,NO,NO,BUENOS AIRES
SCF,,,Aerodromo,SANFORD/CASILDA FUMIGACIONES,"""33°10'34""""S  61°12'10""""W""",-61.20267,-33.17625,79,Metros,Casilda,9,SE,PRIVADO,NOCONTROL,RACE,AEROAPP,Nacional,NO,NO,SANTA FE
VER,,,Aerodromo,VERA,"""29°28' 6""""S  60°13'35""""W""",-60.2264,-29.46835,58,Metros,Vera,1,SO,PUBLICO,NOCONTROL,RANE,,Nacional,NO,NO,SANTA FE
VIC,,,Aerodromo,VICTORIA,"""32°35' 4""""S  60°11'22""""W""",-60.1894,-32.5845,12,Metros,Victoria,4.8,NO,PUBLICO,NOCONTROL,RACE,,Nacional,NO,NO,ENTRE RIOS
GAR,,,Aerodromo,GENERAL ALVEAR,"""35°58'44""""S  59°54'25""""W""",-59.90699,-35.97895,50,Metros,General Alvear,11.5,NE,PRIVADO,NOCONTROL,RACE,CIVIL,Nacional,NO,NO,BUENOS AIRES
HES,,,Helipuerto,ARIES/TOTAL FINA,"""52°40'59""""S  68° 2'31""""W""",-68.041944,-52.683056,0,Pies,,0,,PRIVADO,NOCONTROL,RASU,CIVIL,Nacional,NO,NO,TIERRA DEL FUEGO ANTARTIDA E ISLAS DEL ATLANTICO SUR
IGL,,,Aerodromo,INGENIERO LUIGGI,"""35°21'20""""S  64°28'31""""W""",-64.47527,-35.35546,193,Metros,Ingeniero Luiggi,2,N,PUBLICO,NOCONTROL,RACE,CIVIL,Nacional,NO,NO,LA PAMPA
LRT,,,Aerodromo,LAS ROSAS/HORIZONTE APLICACIONES AEREAS,"""32°31'13""""S  61°33' 3""""W""",-61.55083333,-32.52027778,98,Metros,Las Rosas,6,SE,PRIVADO,NOCONTROL,RACE,AEROAPP,Nacional,NO,NO,SANTA FE
NIK,,,Aerodromo,LOBERIA/NIKA,"""38° 9'24""""S  58°45'39""""W""",-58.76087,-38.15666,80,Metros,Loberia,2,E,PRIVADO,NOCONTROL,RACE,AEROAPP,Nacional,NO,NO,BUENOS AIRES
TSV,,,Aerodromo,TORTUGAS/EA. SAN VICENTE,"""32°59'56""""S  61°46'41""""W""",-61.77805556,-32.99888889,70,Metros,Tortugas,28,SSE,PRIVADO,NOCONTROL,RACE,,Nacional,NO,NO,SANTA FE
FVA,,,Aerodromo,FLORENCIO VARELA/EL PAJARO,"""34°49'36""""S  58°19' 0""""W""",-58.31666667,-34.82666667,16,Metros,Florencio Varela,3.5,SO,PUBLICO,NOCONTROL,RACE,CIVIL,Nacional,NO,NO,BUENOS AIRES
GVA,,,Aerodromo,GENERAL ALVEAR/AEROCLUB,"""34°58'11""""S  67°43'27""""W""",-67.72416667,-34.96972222,466,Metros,General Alvear,4,O,PRIVADO,NOCONTROL,RANO,CIVIL,Nacional,NO,NO,MENDOZA
HGB,,,Helipuerto,SALTA/CENTRO CIVICO GRAND BOURG,"""24°46'51""""S  65°27' 4""""W""",-65.451084,-24.780762,1260,Metros,Salta,4,NE,PRIVADO,NOCONTROL,RANO,CIVIL,Nacional,NO,NO,SALTA
ROB,,,Aerodromo,ROBERTS/AGROAEREO,"""35° 8' 9""""S  61°59'50""""W""",-61.99718,-35.13588,99,Metros,Roberts,3,ONO,PRIVADO,NOCONTROL,RACE,AEROAPP,Nacional,NO,NO,BUENOS AIRES
SLV,,,Aerodromo,EMBARCACION/SALVITA,"""23°12'47""""S  64° 2' 3""""W""",-64.03403,-23.21306,283,Metros,Embarcacion,6,E,PRIVADO,NOCONTROL,RANO,AEROAPP,Nacional,NO,NO,SALTA
VLL,,,Aerodromo,VILLAGUAY/EL MALAGUEÑO,"""31°41'32""""S  59°24'38""""W""",-59.41059,-31.69211,55,Metros,Villaguay,40,NO,PRIVADO,NOCONTROL,RACE,,Nacional,NO,NO,ENTRE RIOS
BHT,,,Aerodromo,BRAGADO/HARAS TRELLIRIS,"""35°19'53""""S  60°34'44""""W""",-60.57884,-35.33147,60,Metros,Bragado,12,S,PRIVADO,NOCONTROL,RACE,CIVIL,Nacional,NO,NO,BUENOS AIRES
FAG,,,Aerodromo,FEDERAL/LA ANGELITA,"""30°51' 8""""S  58°42'24""""W""",-58.70666667,-30.85222222,70,Metros,Federal,13,NNE,PRIVADO,NOCONTROL,RACE,CIVIL,Nacional,NO,NO,ENTRE RIOS
FLO,,,Aerodromo,LAS FLORES,"""36° 3'59""""S  59° 6' 2""""W""",-59.10055556,-36.06638889,34,Metros,Las Flores,5,S,PUBLICO,NOCONTROL,RACE,CIVIL,Nacional,NO,NO,BUENOS AIRES
HBT,,,Helipuerto,LA PLATA,"""34°54' 2""""S  57°55'46""""W""",-57.92948611,-34.90044444,6,Metros,La Plata,3,NE,PRIVADO,NOCONTROL,RACE,CIVIL,Nacional,NO,NO,BUENOS AIRES
HCO,,,Helipuerto,CHENAUT/EL CAPRICHO,"""34°13'58""""S  59°18'57""""W""",-59.315902,-34.232743,30,Metros,Estacion Chenaut,6,O,PRIVADO,NOCONTROL,RACE,CIVIL,Nacional,NO,NO,BUENOS AIRES
HFA,,,Helipuerto,BUENOS AIRES/FUERZA AEREA,"""34°35'10""""S  58°22' 5""""W""",-58.368051,-34.58598,6,Metros,Estacion Retiro,0.5,NE,PRIVADO,NOCONTROL,RACE,MIL,Nacional,NO,NO,CIUDAD AUTONOMA DE BUENOS AIRES
DIL,SAZT,TDL,Aerodromo,TANDIL/HEROES DE MALVINAS,"""37°14' 4""""S  59°13'43""""W""",-59.22858611,-37.23437778,175,Metros,Tandil,13,NO,PUBLICO,CONTROL,RACE,,Nacional,SI,NO,BUENOS AIRES
HMY,,,Helipuerto,LA MATANZA/TERMINAL Y.P.F.,"""34°43'55""""S  58°33'28""""W""",-58.557711,-34.731886,10,Metros,Ruta Prov. 21 y Av. Cristiania,0,Lindando,PRIVADO,NOCONTROL,RACE,CIVIL,Nacional,NO,NO,BUENOS AIRES
DOP,,,Aerodromo,MENDOZA/LA PUNTILLA,"""32°57'45""""S  68°52'26""""W""",-68.87395,-32.96254,942,Metros,Ap. El Plumerillo,8.5,SO,PUBLICO,NOCONTROL,RANO,,Nacional,NO,NO,MENDOZA
HFC,,,Helipuerto,SALTA/FINCA LAS COSTAS,"""24°46'13""""S  65°29'44""""W""",-65.495501,-24.770405,1311,Metros,Salta,8.5,ONO,PRIVADO,NOCONTROL,RANO,CIVIL,Nacional,NO,NO,SALTA
LJN,,,Aerodromo,LUJAN,"""34°33' 2""""S  59° 4'45""""W""",-59.07916667,-34.55055556,25,Metros,Lujan,2,ENE,PRIVADO,NOCONTROL,RACE,,Nacional,NO,NO,BUENOS AIRES
MAI,,,Aerodromo,MONTE MAIZ,"""33°12'40""""S  62°37'52""""W""",-62.63111111,-33.21111111,113,Metros,Monte Maiz,2,O,PUBLICO,NOCONTROL,RANO,,Nacional,NO,NO,CORDOBA
TEJ,,,Aerodromo,CARLOS TEJEDOR,"""35°25'31""""S  62°28'10""""W""",-62.46944444,-35.42527778,94,Metros,Carlos Tejedor,5,SO,PUBLICO,NOCONTROL,RACE,CIVIL,Nacional,NO,NO,BUENOS AIRES
CAM,,,Aerodromo,CORRALITO/ALFONSO MENGO,"""32° 1'28""""S  64°16'46""""W""",-64.27944444,-32.02444444,545,Metros,Corralito,7,O,PRIVADO,NOCONTROL,RANO,AEROAPP,Nacional,NO,NO,CORDOBA
RAU,,,Aerodromo,RAUCH,"""36°46'19""""S  59° 3'28""""W""",-59.05772,-36.7719,94,Metros,Rauch,2,NE,PUBLICO,NOCONTROL,RACE,,Nacional,NO,NO,BUENOS AIRES
TVN,,,Aerodromo,TREVELIN,"""43° 5'15""""S  71°28'41""""W""",-71.47808,-43.08742,397,Metros,Trevelin,2,OSO,PRIVADO,NOCONTROL,RASU,,Nacional,NO,NO,CHUBUT
CRR,SARC,CNQ,Aerodromo,CORRIENTES,"""27°26'44""""S  58°45'43""""W""",-58.76194444,-27.44555556,61.5,Metros,Corrientes,7.5,E,PUBLICO,CONTROL,RANE,CIVIL,Internacional,SI,NO,CORRIENTES
HCE,,,Helipuerto,HELIPLATAFORMA/RIO CULLEN-HIDRACENTRO TOTAL AUSTRAL,"""52°50'11""""S  68°10'44""""W""",-68.178889,-52.836389,39,Metros,,0,Lindando,PRIVADO,NOCONTROL,RASU,CIVIL,Nacional,NO,NO,TIERRA DEL FUEGO ANTARTIDA E ISLAS DEL ATLANTICO SUR
HPA,,,Helipuerto,BUENOS AIRES/PRESIDENCIA DE LA NACION,"""34°36'23""""S  58°22' 6""""W""",-58.368322,-34.606433,8,Metros,Av Madero,,0,Lindando,PRIVADO,NOCONTROL,RACE,CIVIL,Nacional,NO,NO
HSH,,,Helipuerto,SAN ANDRES DE GILES/HOSPITAL MUNICIPAL,"""34°26'56""""S  59°26'58""""W""",-59.449417,-34.448879,47,Metros,Rawson entre Soule y Campora,0,,PUBLICO,NOCONTROL,RACE,CIVIL,Nacional,NO,NO,BUENOS AIRES
SJT,,,Aerodromo,SAN JUSTO,"""30°45'58""""S  60°34' 2""""W""",-60.56722222,-30.76611111,55,Metros,San Justo,1.5,NE,PRIVADO,NOCONTROL,RACE,,Nacional,NO,NO,SANTA FE
THN,,,Aerodromo,TOLHUIN,"""54°29'59""""S  67°10'20""""W""",-67.17226,-54.49961,213,Metros,Tolhuin,1.5,NE,PRIVADO,NOCONTROL,RASU,CIVIL,Nacional,NO,NO,TIERRA DEL FUEGO ANTARTIDA E ISLAS DEL ATLANTICO SUR
ARS,SAVR,ARR,Aerodromo,ALTO RIO SENGUERR/D. C. SZLAPELIS,"""45° 0'48""""S  70°48'46""""W""",-70.81282,-45.0132,697,Metros,Alto Rio Senguerr,3,N,PUBLICO,AERADIO,RASU,CIVIL,Nacional,NO,NO,CHUBUT
CHR,,,Aerodromo,CHACHARRAMENDI,"""37°20'24""""S  65°38'49""""W""",-65.64701,-37.34005,290,Metros,Chacharramendi,0.5,SE,PUBLICO,NOCONTROL,RACE,CIVIL,Nacional,NO,NO,LA PAMPA
ELC,,,Aerodromo,VEINTICINCO DE MAYO/ESTANCIA LA CRIOLLA,"""35°32'12""""S  60° 7'45""""W""",-60.12916667,-35.53666667,48,Metros,25 de Mayo,12,SE,PRIVADO,NOCONTROL,RACE,CIVIL,Nacional,NO,NO,BUENOS AIRES
GRE,SAWR,GGS,Aerodromo,GOBERNADOR GREGORES,"""48°46'60""""S  70° 9'44""""W""",-70.16222222,-48.78333333,356,Metros,Gobernador Gregores,5,E,PUBLICO,AERADIO,RASU,CIVIL,Nacional,NO,NO,SANTA CRUZ
HLP,,,Helipuerto,LA PLATA/HELIPUERTO D.P.A.O.,"""34°57'35""""S  57°53'35""""W""",-57.893075,-34.959802,19,Metros,Extremo W del aerodromo,0,Lindando,PUBLICO,NOCONTROL,RACE,CIVIL,Nacional,NO,NO,BUENOS AIRES
HUP,,,Helipuerto,GENERAL ALVEAR/UNIDAD PENITENCIARIA N° 30,"""36° 2'40""""S  60° 1' 0""""W""",-60.016667,-36.044444,55,Metros,General Alvear,2.5,S,PRIVADO,NOCONTROL,RACE,CIVIL,Nacional,NO,NO,BUENOS AIRES
LMD,,,Aerodromo,JUAN N. FERNANDEZ/LA MADRUGADA,"""38° 0'30""""S  59°20'60""""W""",-59.34998,-38.00845,137,Metros,Juan N. Fernandez,7,O,PRIVADO,NOCONTROL,RACE,CIVIL,Nacional,NO,NO,BUENOS AIRES
STI,SAMI,,Aerodromo,SAN MARTIN,"""33° 3'44""""S  68°30'34""""W""",-68.50944444,-33.06222222,696,Metros,San Martin,3,NE,PUBLICO,NOCONTROL,RANO,,Nacional,NO,NO,MENDOZA
BIO,SAWT,RYO,Aerodromo,EL TURBIO/28 DE NOVIEMBRE,"""51°36'18""""S  72°13'13""""W""",-72.22034,-51.60502,273,Metros,El Turbio,10,ONO,PUBLICO,AERADIO,RASU,CIVIL,Nacional,SI,NO,SANTA CRUZ
SRA,SAMR,AFA,Aerodromo,SAN RAFAEL/S.A. SANTIAGO GERMANO,"""34°35'16""""S  68°24'13""""W""",-68.40358889,-34.58781667,753,Metros,San Rafael,8,O,PUBLICO,CONTROL,RANO,,Nacional,SI,SI,MENDOZA
TAR,SAST,TTG,Aerodromo,TARTAGAL/GENERAL ENRIQUE MOSCONI,"""22°37' 6""""S  63°47'35""""W""",-63.79305556,-22.61833333,449,Metros,Tartagal,11,S,PUBLICO,NOCONTROL,RANO,,Nacional,SI,NO,SALTA
VMB,,,Aerodromo,VICUÑA MACKENNA/BENEFICIOS S.R.L.,"""33°56'15""""S  64°24'54""""W""",-64.41509,-33.93757,241,Metros,Vicuña Mackenna,2,SO,PRIVADO,NOCONTROL,RANO,AEROAPP,Nacional,NO,NO,CORDOBA
ACM,,,Aerodromo,ARRECIFES/LA CURA MALAL,"""34° 4'33""""S  60° 8'30""""W""",-60.1417,-34.07574,37,Metros,Arrecifes,4,OSO,PRIVADO,NOCONTROL,RACE,CIVIL,Nacional,NO,NO,BUENOS AIRES
ADU,,,Aerodromo,BANDERA/DUTTO,"""28°52' 1""""S  62°14'17""""W""",-62.23812,-28.86691,87,Metros,Bandera,3,NE,PRIVADO,NOCONTROL,RANO,AEROAPP,Nacional,NO,NO,SANTIAGO DEL ESTERO
ERE,SANW,CRR,Aerodromo,CERES,"""29°52'18""""S  61°55'37""""W""",-61.92696,-29.87161,87,Metros,Ceres,0.7,NE,PUBLICO,AERADIO,RANO,CIVIL,Nacional,NO,NO,SANTA FE
HWG,,,Helipuerto,BUQUE W. G. VESPUCCI,"""52°53'60""""S  66°49' 0""""W""",-66.81666667,-52.9,28,Metros,25 de Mayo 555 Piso 19-20 CABA,0,,PRIVADO,NOCONTROL,RASU,CIVIL,Nacional,NO,NO,TIERRA DEL FUEGO ANTARTIDA E ISLAS DEL ATLANTICO SUR
NOT,,,Aerodromo,NOGOYA/TOGNOLI,"""32°26'50""""S  59°51'58""""W""",-59.86611,-32.44736,60,Metros,Nogoya,9.5,SO,PRIVADO,NOCONTROL,RACE,AEROAPP,Nacional,NO,NO,ENTRE RIOS
SLT,,,Aerodromo,SALTO,"""34°18'23""""S  60°17'12""""W""",-60.28678,-34.3065,59,Metros,Salto,3,O,PUBLICO,NOCONTROL,RACE,,Nacional,NO,NO,BUENOS AIRES
ALR,,,Aerodromo,ALEJANDRO ROCA,"""33°20'55""""S  63°43'48""""W""",-63.73,-33.34861111,210,Metros,Alejandro Roca,1.5,SO,PRIVADO,NOCONTROL,RANO,CIVIL,Nacional,NO,NO,CORDOBA
CCI,,,Aerodromo,CALCHAQUI,"""29°51' 6""""S  60°17'31""""W""",-60.29201667,-29.85157222,56,Metros,Calchaqui,4,N,PRIVADO,NOCONTROL,RANE,CIVIL,Nacional,NO,NO,SANTA FE
CNO,,,Aerodromo,CARMEN DE ARECO,"""34°25' 5""""S  59°52'28""""W""",-59.87444444,-34.41805556,49,Metros,Carmen de Areco,5,SO,PUBLICO,NOCONTROL,RACE,CIVIL,Nacional,NO,NO,BUENOS AIRES
SGV,,,Aerodromo,SAN GUILLERMO/VERGNANO,"""30°19' 0""""S  61°54' 3""""W""",-61.90083333,-30.31666667,96,Metros,San Guillermo,5,NNE,PRIVADO,NOCONTROL,RANO,AEROAPP,Nacional,NO,NO,SANTA FE
CBA,SACO,COR,Aerodromo,CORDOBA/ING. AER. A. L. V. TARAVELLA,"""31°18'36""""S  64°12'30""""W""",-64.20833333,-31.31,489,Metros,Cordoba,9,NNO,PUBLICO,CONTROL,RANO,CIVIL,Internacional,SI,SI,CORDOBA
CDL,,,Aerodromo,CAÑADA DE LUQUE/BIONDI,"""30°45'28""""S  63°44'53""""W""",-63.74818,-30.75769,249,Metros,Cañada de Luque,3,SW,PRIVADO,NOCONTROL,RANO,AEROAPP,Nacional,NO,NO,CORDOBA
GEP,,,Aerodromo,GUALEGUAYCHU/EL POTRERO,"""32°58'29""""S  58°15'14""""W""",-58.25388889,-32.97472222,27,Metros,Gualeguaychu,25,ONO,PRIVADO,NOCONTROL,RACE,CIVIL,Nacional,NO,NO,ENTRE RIOS
UEL,,,Aerodromo,VILLAGUAY/EL JAGÜEL,"""31°48'14""""S  59° 2' 5""""W""",-59.03479,-31.80384,61,Metros,Villaguay,6.5,N,PRIVADO,NOCONTROL,RACE,,Nacional,NO,NO,ENTRE RIOS
YOP,,,Aerodromo,TRES ARROYOS/PETRAZZINI,"""38°20'52""""S  60°16'34""""W""",-60.27611111,-38.34777778,107,Metros,Tres Arroyos,3,N,PRIVADO,NOCONTROL,RACE,,Nacional,NO,NO,BUENOS AIRES
CHY,,,Aerodromo,CHIVILCOY,"""34°57'45""""S  60° 1'56""""W""",-60.03222222,-34.9625,53,Metros,Chivilcoy,7,S,PUBLICO,NOCONTROL,RACE,CIVIL,Nacional,NO,NO,BUENOS AIRES
EPZ,,,Aerodromo,ESPERANZA,"""31°28'24""""S  60°50'43""""W""",-60.84527778,-31.47333333,38,Metros,Esperanza,8,E,PUBLICO,NOCONTROL,RACE,CIVIL,Nacional,NO,NO,SANTA FE
HCV,,,Helipuerto,CABO VIRGENES/BRM CABO VIRGENES,"""52°19'49""""S  68°24'30""""W""",-68.408453,-52.330311,55,Metros,Rio Gallegos,120,SE,PRIVADO,NOCONTROL,RASU,CIVIL,Nacional,NO,NO,SANTA CRUZ
LYE,SAOL,,Aerodromo,LABOULAYE,"""34° 8' 8""""S  63°21'45""""W""",-63.36237,-34.13544,137,Metros,Laboulaye,2.7,E,PUBLICO,NOCONTROL,RACE,CIVIL,Nacional,NO,NO,CORDOBA
PNT,,,Aerodromo,GENERAL PINTO,"""34°47' 9""""S  61°54'51""""W""",-61.91415,-34.78595,97,Metros,General Pinto,4,SO,PUBLICO,NOCONTROL,RACE,CIVIL,Nacional,NO,NO,BUENOS AIRES
ADT,,,Aerodromo,BANDERA/AGROSERVICIOS DOÑA TERESA,"""28°51'19""""S  62°15'53""""W""",-62.26462,-28.85541,75,Metros,Bandera,4,N,PRIVADO,NOCONTROL,RANO,AEROAPP,Nacional,NO,NO,SANTIAGO DEL ESTERO
HBO,,,Helipuerto,EL BRACHO/TRANSENER S.A.,"""26°59'37""""S  65° 9'49""""W""",-65.163478,-26.993528,378,Metros,El Bracho,0,Lindando,PRIVADO,NOCONTROL,RANO,CIVIL,Nacional,NO,NO,TUCUMAN
JAR,,,Aerodromo,JACINTO ARAUZ,"""38° 3'58""""S  63°25'44""""W""",-63.42902,-38.066,160,Metros,Jacinto Arauz,1,N,PRIVADO,NOCONTROL,RACE,CIVIL,Nacional,NO,NO,LA PAMPA
TIR,,,Aerodromo,COLONIA TIROLESA,"""31°14'53""""S  64° 2'18""""W""",-64.03847,-31.24797,407,Metros,Colonia Tirolesa,3,SE,PRIVADO,NOCONTROL,RANO,CIVIL,Nacional,NO,NO,CORDOBA
AND,,,Aerodromo,ANDALGALA,"""27°37'41""""S  66°20'34""""W""",-66.34277778,-27.62805556,900,Metros,Andalgala,1,O,PRIVADO,NOCONTROL,RANO,CIVIL,Nacional,NO,NO,CATAMARCA
IRI,SATI,,Aerodromo,BERNARDO DE IRIGOYEN,"""26°16'54""""S  53°40'21""""W""",-53.67257,-26.28171,815,Metros,Bernardo de Irigoyen,4,SO,PUBLICO,AERADIO,RANE,CIVIL,Nacional,NO,NO,MISIONES
JAH,,,Aerodromo,JUNIN DE LOS ANDES/HOSTERIA SAN HUBERTO,"""39°42'14""""S  71°10'12""""W""",-71.17,-39.70388889,691,Metros,Junin de los Andes,22,NE,PRIVADO,NOCONTROL,RACE,CIVIL,Nacional,NO,NO,NEUQUEN
VCA,,,Aerodromo,VICTORICA,"""36°12'25""""S  65°24'58""""W""",-65.41617,-36.20694,311,Metros,Victorica,1.2,NE,PRIVADO,NOCONTROL,RACE,,Nacional,NO,NO,LA PAMPA
CSA,,,Aerodromo,CALCHIN/AEROCAMPO SERVICIOS AEREOS,"""31°39'27""""S  63°16'34""""W""",-63.27608,-31.65737,202,Metros,Calchin,5,E,PRIVADO,NOCONTROL,RANO,AEROAPP,Nacional,NO,NO,CORDOBA
GLP,,,Aerodromo,GUALEGUAYCHU/EA. LA PROVIDENCIA,"""32°56'29""""S  58°33'53""""W""",-58.56483,-32.9414,20,Metros,Gualeguaychu,8,N,PRIVADO,NOCONTROL,RACE,CIVIL,Nacional,NO,NO,ENTRE RIOS
LRE,,,Aerodromo,LA RAMADA DE ABAJO/DON EMILIO,"""26°43'58""""S  64°53' 5""""W""",-64.88463,-26.73288,530,Metros,La Ramada,5,SE,PRIVADO,NOCONTROL,RANO,AEROAPP,Nacional,NO,NO,TUCUMAN
SAB,,,Aerodromo,SALADILLO/ABELENDA,"""35°44'19""""S  59°45'43""""W""",-59.76197,-35.73851,39,Metros,Saladillo,9,SSE,PRIVADO,NOCONTROL,RACE,AEROAPP,Nacional,NO,NO,BUENOS AIRES
CFU,,,Aerodromo,CARHUE/FUMAGRO,"""37°12'53""""S  62°46'50""""W""",-62.78055556,-37.21472222,111,Metros,Carhue,5,SO,PRIVADO,NOCONTROL,RACE,AEROAPP,Nacional,NO,NO,BUENOS AIRES
HSD,,,Helipuerto,MORENO/COUNTRY CLUB SAN DIEGO,"""34°36' 2""""S  58°50'27""""W""",-58.840928,-34.600466,23.5,Metros,Moreno,7.5,NO,PRIVADO,NOCONTROL,RACE,,Nacional,NO,NO,BUENOS AIRES
LAZ,,,Aerodromo,LA PAZ/AEROCLUB,"""30°44'37""""S  59°34' 8""""W""",-59.56887,-30.74368,61,Metros,La Paz,6,E,PRIVADO,NOCONTROL,RACE,CIVIL,Nacional,NO,NO,ENTRE RIOS
MAD,,,Aerodromo,GENERAL MADARIAGA,"""37° 2'19""""S  57° 8'11""""W""",-57.13638889,-37.03861111,7,Metros,General Juan Madariaga,4,S,PUBLICO,NOCONTROL,RACE,CIVIL,Nacional,NO,NO,BUENOS AIRES
AGI,SAVA,,Aerodromo,PIEDRA DEL AGUILA,"""40°11'32""""S  70° 0'39""""W""",-70.01075,-40.19232,649,Metros,Piedra del Aguila,17,SSE,PRIVADO,NOCONTROL,RACE,,Nacional,NO,NO,NEUQUEN
SJU,SAWJ,ULA,Aerodromo,SAN JULIAN/CAPITAN D. DANIEL VAZQUEZ,"""49°18'24""""S  67°48'10""""W""",-67.80282,-49.30671,62,Metros,Puerto San Julian,7,O,PUBLICO,AERADIO,RASU,,Nacional,NO,NO,SANTA CRUZ
AER,SABE,AEP,Aerodromo,BUENOS AIRES/AEROPARQUE J. NEWBERY,"""34°33'32""""S  58°24'59""""W""",-58.41638889,-34.55888889,5.6,Metros,Ciudad de Buenos Aires,2,NE,PUBLICO,CONTROL,RACE,JOINT,Internacional,SI,SI,CIUDAD AUTONOMA DE BUENOS AIRES
DFR,,,Aerodromo,DAIREAUX/FUMIGACIONES RODRIGUEZ,"""36°35'27""""S  61°46'30""""W""",-61.77504,-36.59076,113,Metros,Daireaux,2,ONO,PUBLICO,NOCONTROL,RACE,AEROAPP,Nacional,NO,NO,BUENOS AIRES
GDH,,,Aerodromo,GENERAL DEHEZA,"""32°44'42""""S  63°47'46""""W""",-63.79611111,-32.745,274,Metros,General Deheza,0.3,NE,PUBLICO,NOCONTROL,RANO,CIVIL,Nacional,NO,NO,CORDOBA
HLL,,,Helipuerto,SAN CARLOS DE BARILOCHE/COMPLEJO LLAO LLAO,"""41° 3'17""""S  71°32' 2""""W""",-71.533825,-41.054659,775,Metros,San Carlos de Bariloche,20,O,PRIVADO,NOCONTROL,RACE,CIVIL,Nacional,NO,NO,RIO NEGRO
MPP,,,Aerodromo,MAR DEL PLATA/CLUB DE PLANEADORES,"""38° 0'55""""S  57°39'13""""W""",-57.65361111,-38.01527778,45,Metros,Mar del Plata,9.5,O,PUBLICO,NOCONTROL,RACE,,Nacional,NO,NO,BUENOS AIRES
ENO,SADJ,,Aerodromo,MARIANO MORENO,"""34°33'36""""S  58°47'23""""W""",-58.78972222,-34.56,32,Metros,Jose C. Paz,7,S,PUBLICO,CONTROL,RACE,,Nacional,NO,NO,BUENOS AIRES
GOC,,,Aerodromo,GOBERNADOR CASTRO/EL GIRASOL,"""33°40' 7""""S  59°50' 3""""W""",-59.83415,-33.66857,28,Metros,Gobernador Castro,4,SE,PRIVADO,NOCONTROL,RACE,CIVIL,Nacional,NO,NO,BUENOS AIRES
PAT,,,Aerodromo,CARMEN DE PATAGONES,"""40°46'41""""S  62°58'49""""W""",-62.98027778,-40.77805556,40,Metros,Carmen de Patagones,1.5,N,PUBLICO,NOCONTROL,RASU,CIVIL,Nacional,NO,NO,BUENOS AIRES
TOS,,,Aerodromo,TOSTADO,"""29°14' 8""""S  61°47'18""""W""",-61.78845,-29.23552,69,Metros,Tostado,1,OSO,PUBLICO,NOCONTROL,RANO,,Nacional,NO,NO,SANTA FE
ZUL,SAZA,,Aerodromo,AZUL,"""36°50'12""""S  59°52'51""""W""",-59.8808,-36.83675,146,Metros,Azul,3,SO,PUBLICO,NOCONTROL,RACE,CIVIL,Nacional,NO,NO,BUENOS AIRES
HNB,,,Helipuerto,TIGRE/NORDELTA,"""34°26'23""""S  58°38'32""""W""",-58.642147,-34.439639,5,Metros,Tigre,2,NNO,PRIVADO,NOCONTROL,RACE,CIVIL,Nacional,NO,NO,BUENOS AIRES
JGA,,,Aerodromo,JOAQUIN V. GONZALEZ/AGROPECUARIA RIO JURAMENTO,"""25°11'12""""S  64° 4'53""""W""",-64.08135,-25.1866,1184,Metros,Salta,8,SE,PRIVADO,NOCONTROL,RANO,CIVIL,Nacional,NO,NO,SALTA
LVR,,,Aerodromo,LAS VARILLAS/GINEVRO,"""31°51'29""""S  62°50'40""""W""",-62.84449,-31.85801,145,Metros,Las Varillas,12,O,PRIVADO,NOCONTROL,RANO,AEROAPP,Nacional,NO,NO,CORDOBA
MCS,SARM,MCS,Aerodromo,MONTE CASEROS,"""30°16'13""""S  57°38'22""""W""",-57.63944444,-30.27027778,52,Metros,Monte Caseros,1.5,S,PUBLICO,AERADIO,RANE,,Nacional,NO,NO,CORRIENTES
ITO,SANO,,Aerodromo,CHILECITO/BRIG. MY. JUAN FACUNDO QUIROGA,"""29°13'24""""S  67°26'22""""W""",-67.43944444,-29.22333333,945,Metros,Chilecito,7.2,SE,PUBLICO,NOCONTROL,RANO,CIVIL,Nacional,NO,NO,LA RIOJA
MOR,SADM,,Aerodromo,MORON,"""34°40'45""""S  58°38'37""""W""",-58.64361111,-34.67916667,29,Metros,Moron,3,SO,PUBLICO,CONTROL,RACE,,Nacional,NO,NO,BUENOS AIRES
NJB,,,Aerodromo,NOGOYA/JUAN CARLOS BAGUR,"""32°25' 7""""S  59°48'57""""W""",-59.81583333,-32.41861111,58,Metros,Nogoya,4,SO,PRIVADO,NOCONTROL,RACE,,Nacional,NO,NO,ENTRE RIOS
EDO,SACD,,Aerodromo,CORONEL OLMEDO,"""31°29'12""""S  64° 8'27""""W""",-64.14083,-31.48679,432,Metros,Coronel Olmedo,1.2,S,PUBLICO,NOCONTROL,RANO,CIVIL,Nacional,NO,NO,CORDOBA
HAG,,,Helipuerto,LUJAN/SOL DE AGOSTO,"""34°31'60""""S  58°58'15""""W""",-58.970859,-34.53325,10,Metros,Lujan,5,E,PRIVADO,NOCONTROL,RACE,CIVIL,Nacional,NO,NO,BUENOS AIRES
HTS,,,Helipuerto,EL TURBIO/EA. SANTA ANA,"""51°41' 9""""S  71°58' 4""""W""",-71.967747,-51.685796,665,Metros,El Turbio,9.5,E,PRIVADO,NOCONTROL,RASU,CIVIL,Nacional,NO,NO,SANTA CRUZ
JOR,,,Aerodromo,SAN JORGE,"""31°52'58""""S  61°50'36""""W""",-61.84333333,-31.88277778,106,Metros,San Jorge,2.5,NE,PUBLICO,NOCONTROL,RANO,,Nacional,NO,NO,SANTA FE
PDA,,,Aerodromo,JUJUY/PUERTA DE AVALOS,"""24°18'53""""S  65°14'50""""W""",-65.24727,-24.31467,1190,Metros,San Salvador de Jujuy,14,SSE,PUBLICO,NOCONTROL,RANO,CIVIL,Nacional,NO,NO,JUJUY
SVO,SAAV,SFN,Aerodromo,SANTA FE/SAUCE VIEJO,"""31°42'39""""S  60°48'41""""W""",-60.81138889,-31.71083333,17,Metros,Santa Fe,10,SSO,PUBLICO,CONTROL,RACE,,Nacional,SI,NO,SANTA FE
HAS,,,Helipuerto,PARANA/AMARRAS DEL SOL,"""31°42'31""""S  60°30' 3""""W""",-60.50083333,-31.70861111,16,Metros,Parana,4,NE,PRIVADO,NOCONTROL,RACE,CIVIL,Nacional,NO,NO,ENTRE RIOS
HEN,,,Helipuerto,BAHIA SAN SEBASTIAN/PLANTA CRUZ DEL SUR,"""53°19'23""""S  68°15'58""""W""",-68.266107,-53.32299,53,Metros,Rio Grande,64,NO,PRIVADO,NOCONTROL,RASU,CIVIL,Nacional,NO,NO,TIERRA DEL FUEGO ANTARTIDA E ISLAS DEL ATLANTICO SUR
MJZ,SAOM,,Aerodromo,MARCOS JUAREZ,"""32°41' 2""""S  62° 9'28""""W""",-62.15772,-32.684,110,Metros,Marcos Juarez,5,O,PUBLICO,AERADIO,RANO,,Nacional,NO,NO,CORDOBA
PEN,,,Aerodromo,PERGAMINO/LA NORIA,"""33°51'25""""S  60°42' 1""""W""",-60.70038,-33.85694,74,Metros,Pergamino,11,OSO,PRIVADO,NOCONTROL,RACE,AEROAPP,Nacional,NO,NO,BUENOS AIRES
BOG,,,Aerodromo,CORONEL BOGADO/FUMIGACIONES CAMPAGNUCCI,"""33°19'27""""S  60°39'58""""W""",-60.66617,-33.32404,48,Metros,Coronel Bogado,6,O,PRIVADO,NOCONTROL,RACE,AEROAPP,Nacional,NO,NO,SANTA FE
BPS,,,Aerodromo,BRINKMANN/PABLO SIERRA AEROAPLICACIONES,"""30°55'46""""S  62° 3' 2""""W""",-62.05055556,-30.92944444,100,Metros,Brinckmann,6.5,SSO,PRIVADO,NOCONTROL,RANO,AEROAPP,Nacional,NO,NO,CORDOBA
COL,SAZQ,,Aerodromo,RIO COLORADO,"""38°59'42""""S  64° 8'25""""W""",-64.14027778,-38.995,84,Metros,Rio Colorado,5,NO,PRIVADO,NOCONTROL,RACE,,Nacional,NO,NO,RIO NEGRO
HSM,,,Helipuerto,TIGRE/ISLA SANTA MONICA,"""34°24'53""""S  58°30'27""""W""",-58.507365,-34.414724,3,Metros,,0,Lindando,PRIVADO,NOCONTROL,RACE,CIVIL,Nacional,NO,NO,BUENOS AIRES
SLO,,,Aerodromo,SALLIQUELO,"""36°45'24""""S  62°56'39""""W""",-62.94407,-36.75659,127,Metros,Salliquelo,1.4,SE,PUBLICO,NOCONTROL,RACE,,Nacional,NO,NO,BUENOS AIRES
ACH,,,Aerodromo,GENERAL ACHA,"""37°24' 6""""S  64°36'49""""W""",-64.61351,-37.40164,277,Metros,General Acha,3,SO,PUBLICO,NOCONTROL,RACE,CIVIL,Nacional,NO,NO,LA PAMPA
CRD,,,Aerodromo,CONCORDIA/AEROCLUB,"""31°18'14""""S  58° 0'54""""W""",-58.015,-31.30388889,90,Metros,Concordia,10,N,PUBLICO,NOCONTROL,RACE,CIVIL,Nacional,NO,NO,ENTRE RIOS
TEV,,,Aerodromo,TINTINA/ESTABLECIMIENTO EL 21,"""26°53'43""""S  62°18'35""""W""",-62.30972222,-26.89527778,68,Metros,Tintina,41,ENE,PRIVADO,NOCONTROL,RANO,CIVIL,Nacional,NO,NO,SANTIAGO DEL ESTERO
DOR,,,Aerodromo,CORONEL DORREGO,"""38°44'28""""S  61°15'21""""W""",-61.25583333,-38.74111111,120,Metros,Coronel Dorrego,2,SE,PUBLICO,NOCONTROL,RACE,CIVIL,Nacional,NO,NO,BUENOS AIRES
EAU,SAWO,,Aerodromo,USHUAIA/EST. AERONAVAL,"""54°49'22""""S  68°18'15""""W""",-68.30416667,-54.82277778,6,Metros,Ushuaia,1,S,PRIVADO,NOCONTROL,RASU,,Nacional,NO,NO,TIERRA DEL FUEGO ANTARTIDA E ISLAS DEL ATLANTICO SUR
HTL,,,Helipuerto,TRENQUE LAUQUEN/EA. LA CHACOTA,"""35°54'48""""S  62°38'30""""W""",-62.641667,-35.913333,90,Metros,Trenque Lauquen,13,NE,PRIVADO,NOCONTROL,RACE,CIVIL,Nacional,NO,NO,BUENOS AIRES
TRE,SAVT,REL,Aerodromo,TRELEW/ALMIRANTE ZAR,"""43°12'38""""S  65°16'13""""W""",-65.27027778,-43.21055556,43,Metros,Trelew,6.5,NNE,PUBLICO,CONTROL,RASU,,Internacional,SI,SI,CHUBUT
CPO,SADO,,Aerodromo,CAMPO DE MAYO,"""34°32' 4""""S  58°40'19""""W""",-58.672,-34.53433,24,Metros,Estacion San Miguel,3.5,ENE,PRIVADO,NOCONTROL,RACE,MIL,Nacional,NO,NO,BUENOS AIRES
HLT,,,Helipuerto,VILLA ROSA/LAS CHACRITAS,"""34°24'17""""S  58°51'49""""W""",-58.863589,-34.404632,19.66,Metros,Villa Rosa,1.5,NNE,PRIVADO,NOCONTROL,RACE,CIVIL,Nacional,NO,NO,BUENOS AIRES
PRI,,,Aerodromo,CORONEL PRINGLES,"""38° 0'24""""S  61°19'55""""W""",-61.33194444,-38.00666667,247,Metros,Coronel Pringles,3,SE,PUBLICO,NOCONTROL,RACE,CIVIL,Nacional,NO,NO,BUENOS AIRES
SCT,,,Aerodromo,SAN CRISTOBAL,"""30°15'51""""S  61°13'12""""W""",-61.22,-30.26416667,74,Metros,San Cristobal,4,NNE,PRIVADO,NOCONTROL,RANO,,Nacional,NO,NO,SANTA FE
TOT,,,Aerodromo,ALTA GRACIA /EL TOTO,"""31°39' 1""""S  64°22' 8""""W""",-64.36888889,-31.65027778,540,Metros,Alta Gracia,5,E,PRIVADO,NOCONTROL,RANO,CIVIL,Nacional,NO,NO,CORDOBA
AME,,,Aerodromo,AMEGHINO/SIGFRIDO ROHR,"""34°49'50""""S  62°28' 4""""W""",-62.46787,-34.83057,110,Metros,Florentino Ameghino,2,N,PRIVADO,NOCONTROL,RACE,AEROAPP,Nacional,NO,NO,BUENOS AIRES
ROH,,,Aerodromo,ROBERTS/FUMIGACIONES HERBINSEC,"""35° 8'11""""S  61°59'25""""W""",-61.99028,-35.13652,102,Metros,Roberts,1.8,NO,PRIVADO,NOCONTROL,RACE,AEROAPP,Nacional,NO,NO,BUENOS AIRES
AUL,,,Aerodromo,AMEGHINO/AUGUSTO LEGUIZAMON,"""34°49' 5""""S  62°28'38""""W""",-62.47709,-34.81797,109,Metros,Florentino Ameghino,3,NNO,PRIVADO,NOCONTROL,RACE,AEROAPP,Nacional,NO,NO,BUENOS AIRES
CUM,SACC,LCM,Aerodromo,LA CUMBRE,"""31° 0'21""""S  64°31'56""""W""",-64.5321,-31.00589,1138,Metros,La Cumbre,4.5,SO,PUBLICO,NOCONTROL,RANO,CIVIL,Nacional,NO,NO,CORDOBA
MCL,,,Aerodromo,MINA CLAVERO,"""31°43'49""""S  64°59'16""""W""",-64.98777778,-31.73027778,970,Metros,Mina Clavero,1,E,PUBLICO,NOCONTROL,RANO,,Nacional,NO,NO,CORDOBA
OLV,,,Aerodromo,OLIVA,"""32° 3'37""""S  63°32'53""""W""",-63.54799,-32.06029,268,Metros,Oliva,2,SE,PUBLICO,NOCONTROL,RANO,,Nacional,NO,NO,CORDOBA
ADO,SAWD,PUD,Aerodromo,PUERTO DESEADO,"""47°44' 6""""S  65°54'15""""W""",-65.9041,-47.73511,82,Metros,Puerto Deseado,2,N,PUBLICO,AERADIO,RASU,CIVIL,Nacional,NO,NO,SANTA CRUZ
HNP,,,Helipuerto,BUENOS AIRES/HOSPITAL NACIONAL DE PEDIATRIA PROF. JUAN GARRAHAM,"""34°37'52""""S  58°23'38""""W""",-58.393835,-34.63098,39,Metros,Av. Juan de Garay y Pichincha,0,Lindando,PUBLICO,NOCONTROL,RACE,CIVIL,Nacional,NO,NO,CIUDAD AUTONOMA DE BUENOS AIRES
LCP,,,Aerodromo,LONCOPUE,"""38° 4'54""""S  70°38'39""""W""",-70.64406,-38.08177,1106,Metros,Loncopue,3,OSO,PUBLICO,NOCONTROL,RACE,,Nacional,NO,NO,NEUQUEN
RMY,SAWM,ROY,Aerodromo,RIO MAYO,"""45°42'14""""S  70°14'40""""W""",-70.24444444,-45.70388889,544,Metros,Rio Mayo,3,S,PUBLICO,AERADIO,RASU,,Nacional,NO,NO,CHUBUT
NDL,,,Aerodromo,TANDIL/AEROCLUB,"""37°15'47""""S  59° 5'37""""W""",-59.09361111,-37.26305556,165,Metros,Tandil,7,NNE,PUBLICO,NOCONTROL,RACE,,Nacional,NO,NO,BUENOS AIRES
PRC,,,Aerodromo,HUNTER/FUMIGACIONES FREDY,"""34°14'10""""S  60°34'55""""W""",-60.58194444,-34.23611111,53.7,Metros,Hunter,5,ONO,PRIVADO,NOCONTROL,RACE,AEROAPP,Nacional,NO,NO,BUENOS AIRES
PST,,,Aerodromo,PUERTO SAN MARTIN/TERMINAL 6,"""32°38'30""""S  60°45'12""""W""",-60.7534,-32.64155,0,Metros,Puerto General San Martin,7,N,PRIVADO,NOCONTROL,RACE,,Nacional,NO,NO,SANTA FE
VTE,,,Aerodromo,SAN VICENTE,"""26°57'11""""S  54°29'16""""W""",-54.48789,-26.95314,550,Metros,San Vicente,2,N,PUBLICO,NOCONTROL,RANE,,Nacional,NO,NO,MISIONES
CCO,,,Aerodromo,CARLOS CASARES/OTTAVIANI,"""35°38'53""""S  61°21' 1""""W""",-61.35038,-35.64817,82,Metros,Carlos Casares,2,SSE,PRIVADO,NOCONTROL,RACE,AEROAPP,Nacional,NO,NO,BUENOS AIRES
TRC,SAOC,RCU,Aerodromo,RIO CUARTO/AREA DE MATERIAL,"""33° 5'32""""S  64°16'10""""W""",-64.26934,-33.09216,421,Metros,Rio Cuarto,8,NE,PUBLICO,CONTROL,RANO,,Nacional,SI,SI,CORDOBA
CSQ,,,Aerodromo,CAPITAN SARMIENTO/QUEBRACHO HERRADO,"""34° 9'22""""S  59°52'24""""W""",-59.87336,-34.15622,52,Metros,Capitan Sarmiento,8,O,PRIVADO,NOCONTROL,RACE,CIVIL,Nacional,NO,NO,BUENOS AIRES
CAL,,,Aerodromo,CAMPO ARENAL,"""27° 4'20""""S  66°35'11""""W""",-66.58638889,-27.07222222,2324,Metros,Santa Maria,58,SO,PRIVADO,NOCONTROL,RANO,CIVIL,Nacional,NO,NO,CATAMARCA
GPO,,,Aerodromo,GENERAL PINEDO,"""27°20'38""""S  61°16'29""""W""",-61.27484,-27.34401,91,Metros,General Pinedo,2,E,PUBLICO,NOCONTROL,RANE,CIVIL,Nacional,NO,NO,CHACO
HGS,,,Aerodromo,HUGHES/PLUS AGROSERVICIOS AEREOS,"""33°48'40""""S  61°20'15""""W""",-61.3375,-33.81111111,97,Metros,Hughes,1,S,PRIVADO,NOCONTROL,RACE,AEROAPP,Nacional,NO,NO,SANTA FE
ALL,,,Aerodromo,ALLEN,"""38°57'30""""S  67°48'10""""W""",-67.80277778,-38.95833333,290,Metros,Allen,3.5,E,PRIVADO,NOCONTROL,RACE,CIVIL,Nacional,NO,NO,RIO NEGRO
GNA,SAMA,,Aerodromo,GENERAL ALVEAR,"""35° 3'34""""S  67°41'35""""W""",-67.69319,-35.05939,454,Metros,General Alvear,7.5,S,PUBLICO,NOCONTROL,RANO,CIVIL,Nacional,NO,NO,MENDOZA
HEC,,,Helipuerto,LA PLATA/ECODYMA S.C.A.,"""34°56'27""""S  57°59'31""""W""",-57.991881,-34.940786,14,Metros,Estacion La Plata,5.5,SO,PRIVADO,NOCONTROL,RACE,CIVIL,Nacional,NO,NO,BUENOS AIRES
PSV,,,Aerodromo,PRESIDENCIA ROQUE SAENZ PEÑA/ROVERE,"""26°46'59""""S  60°29'15""""W""",-60.48741,-26.78309,0,Metros,Presidencia Roque Saenz Peña,5.2,O,PRIVADO,NOCONTROL,RANE,,Nacional,NO,NO,CHACO
HRI,,,Helipuerto,HELIPLATAFORMA CARINA/TOTAL FINA ELF,"""52°45'26""""S  67°13'10""""W""",-67.219444,-52.757222,0,Pies,,0,,PRIVADO,NOCONTROL,RASU,CIVIL,Nacional,NO,NO,TIERRA DEL FUEGO ANTARTIDA E ISLAS DEL ATLANTICO SUR
LZA,,,Aerodromo,LAGO LA ESPERANZA,"""42°13' 2""""S  71°48'19""""W""",-71.80522,-42.21713,560,Metros,Lago Puelo,24,SO,PRIVADO,NOCONTROL,RASU,CIVIL,Nacional,NO,NO,CHUBUT
MSR,,,Aerodromo,MERCEDES/EA. SANTA ROMANA,"""33°44'49""""S  65°14'44""""W""",-65.24549,-33.74683,472,Metros,Villa Reynolds,13,E,PRIVADO,NOCONTROL,RANO,,Nacional,NO,NO,SAN LUIS
VTO,,,Aerodromo,VENADO TUERTO/LA SIESTA,"""33°41'29""""S  62° 3'49""""W""",-62.06369,-33.69132,112,Metros,Venado Tuerto,12,NO,PRIVADO,NOCONTROL,RACE,,Nacional,NO,NO,SANTA FE
ARY,,,Aerodromo,ARROYITO/ARCOR,"""31°25'20""""S  63° 0'18""""W""",-63.005,-31.42222222,148,Metros,Arroyito,4,E,PUBLICO,NOCONTROL,RANO,CIVIL,Nacional,NO,NO,CORDOBA
CZU,,,Aerodromo,CURUZU CUATIA/AEROCLUB,"""29°46'44""""S  58° 5'49""""W""",-58.09694444,-29.77888889,80,Metros,Curuzu Cuatia,1.5,NO,PUBLICO,NOCONTROL,RANE,CIVIL,Nacional,NO,NO,CORRIENTES
FSA,SARF,FMA,Aerodromo,FORMOSA,"""26°12'46""""S  58°13'41""""W""",-58.22805556,-26.21277778,59,Metros,Formosa,7,S,PUBLICO,CONTROL,RANE,CIVIL,Internacional,SI,SI,FORMOSA
HLH,,,Helipuerto,LUJAN/HOMAQ,"""34°33'26""""S  59° 2'45""""W""",-59.045919,-34.557353,24,Metros,Lujan,6,N,PRIVADO,NOCONTROL,RACE,CIVIL,Nacional,NO,NO,BUENOS AIRES
EVC,,,Aerodromo,GDOR. VALENTIN VIRASORO/EA. VILLA CORINA,"""28° 2'28""""S  56° 4'16""""W""",-56.07106,-28.04099,123,Metros,Gobernador Valentin Virasoro,5,O,PRIVADO,NOCONTROL,RANE,CIVIL,Nacional,NO,NO,CORRIENTES
HMC,,,Helipuerto,GARIN/MIRAFLORES COUNTRY CLUB,"""34°26'45""""S  58°44' 3""""W""",-58.734061,-34.445915,21,Metros,Garin,2.6,S,PRIVADO,NOCONTROL,RACE,CIVIL,Nacional,NO,NO,BUENOS AIRES
HOB,,,Helipuerto,ALTA GRACIA/ORESTE BERTA,"""31°37'59""""S  64°23'52""""W""",-64.397768,-31.633061,570,Metros,Alta Gracia,3.5,NE,PRIVADO,NOCONTROL,RANO,CIVIL,Nacional,NO,NO,CORDOBA
LLA,,,Aerodromo,LAS LAJITAS/AEROSOLUCIONES,"""24°44'56""""S  64°14' 6""""W""",-64.235,-24.74888889,492,Metros,Las Lajitas,4,OSO,PRIVADO,NOCONTROL,RANO,AEROAPP,Nacional,NO,NO,SALTA
MIN,,,Aerodromo,VILLA MINETTI,"""28°37' 8""""S  61°36'13""""W""",-61.60359,-28.61901,75,Metros,Villa Minetti,5,E,PRIVADO,NOCONTROL,RANO,,Nacional,NO,NO,SANTA FE
VMR,SAOV,,Aerodromo,VILLA MARIA/AEROPUERTO REGIONAL,"""32°19'12""""S  63°13'36""""W""",-63.22654,-32.32006,202,Metros,Villa Maria,9,N,PUBLICO,NOCONTROL,RANO,CIVIL,Nacional,NO,NO,CORDOBA
ANA,,,Aerodromo,PARANA/AEROCLUB,"""31°45'28""""S  60°22'26""""W""",-60.37388889,-31.75777778,60,Metros,La Picada,15,ESE,PUBLICO,NOCONTROL,RACE,,Nacional,NO,NO,ENTRE RIOS
GNR,SAHR,GNR,Aerodromo,GENERAL ROCA/DR. ARTURO HUMBERTO ILLIA,"""39° 0' 0""""S  67°37'11""""W""",-67.61972222,-39,260,Metros,General Roca,4.8,NO,PUBLICO,AERADIO,RACE,CIVIL,Nacional,SI,NO,RIO NEGRO
GSE,,,Aerodromo,GUAVIRAVI/EA. SANTA ELISA,"""29°18'16""""S  56°52'52""""W""",-56.88124,-29.30444,63,Metros,Guaviravi,8.7,NO,PRIVADO,NOCONTROL,RANE,CIVIL,Nacional,NO,NO,CORRIENTES
HDS,,,Aerodromo,HENDERSON,"""36°18'55""""S  61°44'52""""W""",-61.74777778,-36.31527778,150,Metros,Henderson,2.5,OSO,PUBLICO,NOCONTROL,RACE,CIVIL,Nacional,NO,NO,BUENOS AIRES
MAC,,,Aerodromo,MACACHIN,"""37° 8'45""""S  63°40'44""""W""",-63.67893,-37.14581,140,Metros,Macachin,0,SO,PRIVADO,NOCONTROL,RACE,,Nacional,NO,NO,LA PAMPA
CHO,,,Aerodromo,CHOLILA,"""42°28'50""""S  71°27'25""""W""",-71.45682,-42.4806,574,Metros,Cholila,4,NO,PRIVADO,NOCONTROL,RASU,CIVIL,Nacional,NO,NO,CHUBUT
HCD,,,Helipuerto,SAN MARTIN DE LOS ANDES/EA. LA CANDELARIA,"""40° 2'39""""S  71°21'60""""W""",-71.366646,-40.044053,914,Metros,San Martin de los Andes,13,N,PRIVADO,NOCONTROL,RACE,CIVIL,Nacional,NO,NO,NEUQUEN
LVA,,,Aerodromo,LAS VARAS/MACIAS,"""31°49' 2""""S  62°37'49""""W""",-62.63027778,-31.81722222,126,Metros,Las Varas,2,SO,PRIVADO,NOCONTROL,RANO,AEROAPP,Nacional,NO,NO,CORDOBA
USU,SAWH,USH,Aerodromo,USHUAIA/MALVINAS ARGENTINAS,"""54°50'36""""S  68°17'44""""W""",-68.29555556,-54.84333333,31,Metros,Ushuaia,0,Lindando,PUBLICO,CONTROL,RASU,,Internacional,SI,SI,TIERRA DEL FUEGO ANTARTIDA E ISLAS DEL ATLANTICO SUR
MRD,,,Aerodromo,MERCEDES,"""34°38'20""""S  59°27'19""""W""",-59.45527778,-34.63888889,42,Metros,Mercedes,2.5,NO,PUBLICO,NOCONTROL,RACE,,Nacional,NO,NO,BUENOS AIRES
VTS,,,Aerodromo,VENADO TUERTO/SAVESA,"""33°46'43""""S  61°58'34""""W""",-61.97609,-33.77872,110,Metros,Venado Tuerto,3,S,PRIVADO,NOCONTROL,RACE,,Nacional,NO,NO,SANTA FE
CII,,,Aerodromo,CORRIENTES/ITA IBATE,"""27°26'54""""S  57°25'20""""W""",-57.42222222,-27.44833333,68,Metros,Ita Ibate,8,OSO,PRIVADO,NOCONTROL,RANE,CIVIL,Nacional,NO,NO,CORRIENTES
HAT,,,Helipuerto,ALMAFUERTE/TRANSENER S.A.,"""32°12'13""""S  64°18'53""""W""",-64.314603,-32.20354,500,Metros,Almafuerte,6.3,O,PRIVADO,NOCONTROL,RANO,CIVIL,Nacional,NO,NO,CORDOBA
LPB,,,Aerodromo,COMANDANTE LUIS PIEDRABUENA,"""49°59'42""""S  68°56'59""""W""",-68.94984,-49.99499,24,Metros,Comandante Luis Piedrabuena,3.5,SSO,PRIVADO,NOCONTROL,RASU,CIVIL,Nacional,NO,NO,SANTA CRUZ
CEJ,,,Aerodromo,LAS CEJAS/AGROALAS SRL,"""26°52'11""""S  64°44'45""""W""",-64.74583333,-26.86972222,346,Metros,Las Cejas,2,NNO,PRIVADO,NOCONTROL,RANO,CIVIL,Nacional,NO,NO,TUCUMAN
ELP,,,Aerodromo,SANTA ROSA/EL PAMPERO,"""36°35'50""""S  64°11'12""""W""",-64.18672,-36.59712,178,Metros,Santa Rosa,10,NE,PUBLICO,NOCONTROL,RACE,,Nacional,NO,NO,LA PAMPA
ESR,,,Aerodromo,EL ESPINILLO/ESTANCIA SAN RAFAEL,"""25° 2'36""""S  58°35'29""""W""",-58.59132,-25.04338,88,Metros,El Espinillo,8,SE,PRIVADO,NOCONTROL,RANE,CIVIL,Nacional,NO,NO,FORMOSA
FUN,,,Aerodromo,DEAN FUNES,"""30°22'46""""S  64°22'47""""W""",-64.37973,-30.37934,689,Metros,Dean Funes,4.5,NNO,PUBLICO,NOCONTROL,RANO,CIVIL,Nacional,NO,NO,CORDOBA
PED,,,Aerodromo,SAN PEDRO,"""33°42'12""""S  59°43'31""""W""",-59.72527778,-33.70333333,27,Metros,San Pedro,3.7,SO,PUBLICO,NOCONTROL,RACE,,Nacional,NO,NO,BUENOS AIRES
TLS,,,Aerodromo,TILISARAO,"""32°45' 8""""S  65°16'54""""W""",-65.28158,-32.75226,751,Metros,Tilisarao,2.5,E,PUBLICO,NOCONTROL,RANO,,Nacional,NO,NO,SAN LUIS
TXO,,,Aerodromo,EL TRAPIAL/CHEVRON TEXACO,"""37°21'54""""S  69°18' 7""""W""",-69.30194444,-37.365,883,Metros,Rincon de los Sauces,20,O,PRIVADO,NOCONTROL,RACE,CIVIL,Nacional,NO,NO,NEUQUEN
CAT,SANC,CTC,Aerodromo,CATAMARCA,"""28°35'35""""S  65°45' 4""""W""",-65.75111111,-28.59305556,464,Metros,San Fernando del Valle de Catamarca,15,SSE,PUBLICO,CONTROL,RANO,CIVIL,Nacional,SI,SI,CATAMARCA
GLH,,,Aerodromo,GENERAL LAS HERAS,"""34°55'14""""S  58°54'59""""W""",-58.91638889,-34.92055556,35,Metros,General Las Heras,3,E,PUBLICO,NOCONTROL,RACE,CIVIL,Nacional,NO,NO,BUENOS AIRES
SSR,,,Aerodromo,SALADILLO/SANTA RITA,"""35°49'42""""S  60° 8'48""""W""",-60.14666667,-35.82833333,54,Metros,Saladillo,38,SO,PRIVADO,NOCONTROL,RACE,,Nacional,NO,NO,BUENOS AIRES
VNO,,,Aerodromo,VENADO TUERTO,"""33°40'47""""S  61°57'19""""W""",-61.95515,-33.67977,112,Metros,Venado Tuerto,6,N,PUBLICO,NOCONTROL,RACE,,Nacional,NO,NO,SANTA FE
FMA,SACA,,Aerodromo,CORDOBA/CAPITAN D. OMAR DARIO GELARDI,"""31°26'31""""S  64°15'30""""W""",-64.25847,-31.44195,486,Metros,Cordoba,7,SO,PUBLICO,AERADIO,RANO,MIL,Nacional,NO,NO,CORDOBA
HSW,,,Helipuerto,HELIPLATAFORMA SWIBER PJW3000,"""53° 4'35""""S  67°57'50""""W""",-67.96400424,-53.07649481,36,Metros,Campo Vega Pleyade (531929S-0674311W 530346S-0674649W 525444S-0680635W 525554S-0681826W),0,,PRIVADO,NOCONTROL,RASU,,Nacional,NO,NO,TIERRA DEL FUEGO ANTARTIDA E ISLAS DEL ATLANTICO SUR
JUA,SANU,UAQ,Aerodromo,SAN JUAN/DOMINGO FAUSTINO SARMIENTO,"""31°34'17""""S  68°25' 6""""W""",-68.41833333,-31.57138889,597,Metros,San Juan,12,SE,PUBLICO,CONTROL,RANO,,Nacional,SI,SI,SAN JUAN
LIN,,,Aerodromo,LINCOLN,"""34°53'27""""S  61°31'53""""W""",-61.53138889,-34.89083333,85,Metros,Lincoln,3,S,PUBLICO,NOCONTROL,RACE,,Nacional,NO,NO,BUENOS AIRES
SRC,SAOS,RLO,Aerodromo,SANTA ROSA DE CONLARA/VALLE DEL CONLARA,"""32°23' 5""""S  65°11' 9""""W""",-65.18583333,-32.38472222,616,Metros,Santa Rosa del Conlara,4.5,SSE,PUBLICO,CONTROL,RANO,,Nacional,NO,NO,SAN LUIS
HMG,,,Helipuerto,BUENOS AIRES / MADERO HARBOUR,"""34°37'16""""S  58°21'39""""W""",-58.36092778,-34.62097778,78.8,Metros,Edificio T5 - Complejo Madero Harbour,0,,PRIVADO,NOCONTROL,RACE,CIVIL,Nacional,NO,NO,CIUDAD AUTONOMA DE BUENOS AIRES
MAY,,,Aerodromo,VEINTICINCO DE MAYO,"""35°26'47""""S  60° 5'19""""W""",-60.08861111,-35.44638889,89,Metros,25 de Mayo,7,ENE,PRIVADO,NOCONTROL,RACE,,Nacional,NO,NO,BUENOS AIRES
PTM,SAWP,PMQ,Aerodromo,PERITO MORENO,"""46°32'18""""S  70°58'44""""W""",-70.97879,-46.53844,430,Metros,Perito Moreno,8,NO,PUBLICO,AERADIO,RASU,,Nacional,NO,NO,SANTA CRUZ
RLC,,,Aerodromo,REALICO,"""35° 3'32""""S  64°12'46""""W""",-64.21277,-35.05892,165,Metros,Realico,6,ESE,PUBLICO,NOCONTROL,RACE,,Nacional,NO,NO,LA PAMPA
BOE,,,Aerodromo,MORTEROS/AEROBOERO,"""30°43'51""""S  62° 0'29""""W""",-62.00809,-30.73091,96,Metros,Morteros,1,S,PUBLICO,NOCONTROL,RANO,,Nacional,NO,NO,CORDOBA
GIL,,,Aerodromo,SAN ANDRES DE GILES,"""34°28'13""""S  59°25'29""""W""",-59.42472222,-34.47027778,51,Metros,San Andres de Giles,3,SE,PUBLICO,NOCONTROL,RACE,,Nacional,NO,NO,BUENOS AIRES
CHP,SAZY,CPC,Aerodromo,SAN MARTIN DE LOS ANDES/AVIADOR C. CAMPOS,"""40° 4'31""""S  71° 8'14""""W""",-71.13722222,-40.07527778,783,Metros,San Martin de los Andes,20,ENE,PUBLICO,CONTROL,RACE,CIVIL,Nacional,SI,SI,NEUQUEN
DIA,SAAC,COC,Aerodromo,CONCORDIA/COMODORO PIERRESTEGUI,"""31°17'49""""S  57°59'48""""W""",-57.99666667,-31.29694444,34,Metros,Concordia,12,N,PUBLICO,CONTROL,RACE,CIVIL,Nacional,SI,NO,ENTRE RIOS
HPD,,,Helipuerto,MENDOZA/POLICIA DE LA PROVINCIA DE MENDOZA,"""32°52'42""""S  68°52' 4""""W""",-68.867744,-32.878387,807,Metros,Aeropuerto de Mendoza,8,OSO,PRIVADO,NOCONTROL,RANO,CIVIL,Nacional,NO,NO,MENDOZA
JSM,SAWS,JSM,Aerodromo,JOSE DE SAN MARTIN,"""44° 2'50""""S  70°26'47""""W""",-70.44638889,-44.04722222,734,Metros,Jose de San Martin,0,Lindando,PUBLICO,AERADIO,RASU,CIVIL,Nacional,NO,NO,CHUBUT
FRO,,,Aerodromo,ROSARIO DE LA FRONTERA,"""25°49'34""""S  64°57'48""""W""",-64.96323,-25.82616,837,Metros,Rosario de la Frontera,3.6,S,PRIVADO,NOCONTROL,RANO,CIVIL,Nacional,NO,NO,SALTA
HMA,,,Helipuerto,HUDSON/MANUEL AFONSO,"""34°48'56""""S  58°11'43""""W""",-58.195412,-34.815509,11,Metros,,0,,PUBLICO,NOCONTROL,RACE,CIVIL,Nacional,NO,NO,BUENOS AIRES
NST,,,Aerodromo,NUESTRA SEÑORA DE TALAVERA/FINCA TOLOCHE,"""25°26'15""""S  63°51'29""""W""",-63.85805556,-25.4375,317,Metros,Nuestra Señora de Talavera,8,NO,PRIVADO,NOCONTROL,RANO,AEROAPP,Nacional,NO,NO,SALTA
OSA,SAZR,RSA,Aerodromo,SANTA ROSA,"""36°35'18""""S  64°16'33""""W""",-64.27583333,-36.58833333,192,Metros,Santa Rosa,4.5,NNE,PUBLICO,CONTROL,RACE,,Nacional,SI,SI,LA PAMPA
VNA,,,Aerodromo,VERONICA,"""35°23'58""""S  57°22' 2""""W""",-57.36722222,-35.39944444,17,Metros,Veronica,2.5,SO,PUBLICO,NOCONTROL,RACE,,Nacional,NO,NO,BUENOS AIRES
CLN,,,Aerodromo,COLON,"""32°15'39""""S  58° 9'22""""W""",-58.15611111,-32.26083333,20,Metros,Colon,5,S,PUBLICO,NOCONTROL,RACE,CIVIL,Nacional,NO,NO,ENTRE RIOS
FDO,SADF,FDO,Aerodromo,SAN FERNANDO,"""34°27'16""""S  58°35'27""""W""",-58.59091,-34.45454,3,Metros,San Fernando,2,SO,PUBLICO,CONTROL,RACE,,Internacional,SI,SI,BUENOS AIRES
CLD,,,Aerodromo,CHAÑAR LADEADO,"""33°20'21""""S  62° 2'13""""W""",-62.03693,-33.3391,112,Metros,Chañar Ladeado,0,Lindando,PUBLICO,NOCONTROL,RACE,CIVIL,Nacional,NO,NO,SANTA FE
ROS,SAAR,ROS,Aerodromo,ROSARIO/ISLAS MALVINAS,"""32°54'13""""S  60°47' 4""""W""",-60.78444444,-32.90361111,26,Metros,Rosario,13,ONO,PUBLICO,CONTROL,RACE,,Internacional,SI,NO,SANTA FE
APO,,,Aerodromo,APOSTOLES,"""27°54'12""""S  55°45'56""""W""",-55.76555556,-27.90333333,117,Metros,Apostoles,1.6,NO,PRIVADO,NOCONTROL,RANE,CIVIL,Nacional,NO,NO,MISIONES
BHB,,,Aerodromo,BAHIA BLANCA/AEROCLUB,"""38°40'19""""S  62°21' 9""""W""",-62.3525,-38.67194444,15,Metros,Bahia Blanca,9,NO,PRIVADO,NOCONTROL,RACE,CIVIL,Nacional,NO,NO,BUENOS AIRES
CNA,,,Aerodromo,CAÑUELAS,"""35° 6'42""""S  58°43'35""""W""",-58.72638889,-35.11166667,30,Metros,Cañuelas,5,SE,PUBLICO,NOCONTROL,RACE,CIVIL,Nacional,NO,NO,BUENOS AIRES
CTA,,,Aerodromo,COPETONAS,"""38°44'37""""S  60°33'12""""W""",-60.55343,-38.74354,51,Metros,Copetonas,9,OSO,PRIVADO,NOCONTROL,RACE,CIVIL,Nacional,NO,NO,BUENOS AIRES
FDD,,,Aerodromo,FORTIN DRAGONES/EL DESAFIO,"""23°14'33""""S  63°19'23""""W""",-63.32305556,-23.2425,244,Metros,Dragones,2,NE,PRIVADO,NOCONTROL,RANO,CIVIL,Nacional,NO,NO,SALTA
HCN,,,Helipuerto,EMBALSE/CENTRAL NUCLEAR,"""32°13'46""""S  64°26'24""""W""",-64.439904,-32.229454,530,Metros,Embalse,0,SE,PRIVADO,NOCONTROL,RANO,CIVIL,Nacional,NO,NO,CORDOBA
HRE,,,Helipuerto,RECREO/TRANSENER S.A.,"""29°15'46""""S  65° 3'30""""W""",-65.058247,-29.262769,247,Metros,Recreo,0,,PRIVADO,NOCONTROL,RANO,CIVIL,Nacional,NO,NO,CATAMARCA
NDR,,,Aerodromo,NORBERTO DE LA RIESTRA,"""35°19'39""""S  59°47'28""""W""",-59.7910805,-35.327583,38.5,Metros,Norberto de la Riestra,6,S,PRIVADO,NOCONTROL,RACE,AEROAPP,Nacional,NO,NO,BUENOS AIRES
HZA,,,Aerodromo,MAIPU/ESTABLECIMIENTO EL ARAZA,"""36°46'33""""S  57°38'34""""W""",-57.64277778,-36.77583333,93,Metros,Estacion Santo Domingo,8.5,SE,PRIVADO,NOCONTROL,RACE,,Nacional,NO,NO,BUENOS AIRES
VMK,,,Aerodromo,VICUÑA MACKENNA/MARTIN FIERRO,"""33°56'35""""S  64°22'16""""W""",-64.37117,-33.94302,230,Metros,Vicuña Mackenna,2,SSE,PRIVADO,NOCONTROL,RACE,,Nacional,NO,NO,CORDOBA
PJO,,,Aerodromo,PEHUAJO/LA MARIELA,"""35°47'26""""S  61°56'31""""W""",-61.94194444,-35.79055556,86,Metros,Pehuajo,4.5,NO,PRIVADO,NOCONTROL,RACE,,Nacional,NO,NO,BUENOS AIRES
SIS,SARE,RES,Aerodromo,RESISTENCIA,"""27°26'60""""S  59° 3'22""""W""",-59.05611111,-27.45,53,Metros,Resistencia,5,SO,PUBLICO,CONTROL,RANE,,Internacional,SI,SI,CHACO
URD,,,Aerodromo,URDINARRAIN,"""32°41'45""""S  58°53'56""""W""",-58.8989,-32.69589,66,Metros,Urdinarrain,0,SE,PUBLICO,NOCONTROL,RACE,,Nacional,NO,NO,ENTRE RIOS
CHJ,,,Aerodromo,CHAJARI,"""30°45'14""""S  58° 0' 0""""W""",-58.00002,-30.7539,53,Metros,Chajari,1.5,O,PUBLICO,NOCONTROL,RACE,CIVIL,Nacional,NO,NO,ENTRE RIOS
RIE,,,Aerodromo,RIO CUARTO/ESTINDHER,"""33° 5'34""""S  64°25'45""""W""",-64.42926,-33.09288,0,Metros,Rio Cuarto,9,NO,PRIVADO,NOCONTROL,RANO,,Nacional,NO,NO,CORDOBA
BLE,,,Aerodromo,BALCARCE/EA. LA ESTRELLA,"""37°33'34""""S  58°39'58""""W""",-58.66611111,-37.55944444,139,Metros,Balcarce,53,N,PRIVADO,NOCONTROL,RACE,CIVIL,Nacional,NO,NO,BUENOS AIRES
CSP,,,Aerodromo,CAPITAN SARMIENTO/SAN PATRICIO,"""34° 2'25""""S  59°41'40""""W""",-59.69444444,-34.04027778,45,Metros,Capitan Sarmiento,16.7,NNE,PRIVADO,NOCONTROL,RACE,CIVIL,Nacional,NO,NO,BUENOS AIRES
HCG,,,Helipuerto,EZEIZA/TRANSENER S.A.,"""34°54'44""""S  58°43'11""""W""",-58.719844,-34.912354,20,Metros,Cañuelas,15,N,PRIVADO,NOCONTROL,RACE,CIVIL,Nacional,NO,NO,BUENOS AIRES
IAC,SASQ,,Aerodromo,LA QUIACA/DR. GUILLERMO EUGENIO SNOPEK,"""22° 9'43""""S  65°34'19""""W""",-65.57207,-22.16195,3480,Metros,La Quiaca,6,SE,PUBLICO,NOCONTROL,RANO,CIVIL,Nacional,NO,NO,JUJUY
PCA,,,Aerodromo,PIQUETE CABADO/SAS AEROAPLICACIONES,"""24°48'24""""S  64°10'52""""W""",-64.18111111,-24.80666667,457,Metros,Piquete Cabado,1,N,PRIVADO,NOCONTROL,RANO,AEROAPP,Nacional,NO,NO,SALTA
AMG,,,Aerodromo,AMEGHINO,"""34°50'43""""S  62°28'58""""W""",-62.48266,-34.84541,110,Metros,Florentino Ameghino,2.5,ONO,PRIVADO,NOCONTROL,RACE,CIVIL,Nacional,NO,NO,BUENOS AIRES
CQZ,,,Aerodromo,CAÑADA QUIROZ,"""27°32'59""""S  58°43' 3""""W""",-58.7175,-27.54972222,55,Metros,Corrientes,15,SE,PRIVADO,NOCONTROL,RANO,CIVIL,Nacional,NO,NO,CORRIENTES
ECA,SAWC,FTE,Aerodromo,EL CALAFATE,"""50°16'48""""S  72° 3'11""""W""",-72.05305556,-50.28,204,Metros,El Calafate,16.6,ENE,PUBLICO,CONTROL,RASU,CIVIL,Nacional,SI,SI,SANTA CRUZ
JES,,,Aerodromo,JESUS MARIA,"""30°59'18""""S  64° 4'41""""W""",-64.07797,-30.9883,530,Metros,Jesus Maria,1.8,ESE,PUBLICO,NOCONTROL,RANO,CIVIL,Nacional,NO,NO,CORDOBA
JLA,,,Aerodromo,JUNIN DE LOS ANDES/SAN IGNACIO,"""39°50'44""""S  70°51'55""""W""",-70.86537,-39.84555,691,Metros,Junin de los Andes,22,NE,PRIVADO,NOCONTROL,RACE,CIVIL,Nacional,NO,NO,NEUQUEN
MON,,,Aerodromo,MONJE/FUMIGACIONES GONZALEZ,"""32°21'32""""S  60°58'47""""W""",-60.97972222,-32.35888889,30,Metros,Monje,3,O,PRIVADO,NOCONTROL,RACE,AEROAPP,Nacional,NO,NO,SANTA FE
RAW,,,Aerodromo,RAWSON,"""43°17'38""""S  65° 3'47""""W""",-65.06319021,-43.29391627,11,Metros,Rawson,2,E,PUBLICO,NOCONTROL,RASU,,Nacional,NO,NO,CHUBUT
CDA,,,Aerodromo,SARGENTO CABRAL/CONDOR DEL AIRE,"""33°27'57""""S  60°37'43""""W""",-60.62857,-33.46586,56,Metros,Sargento Cabral,4,S,PRIVADO,NOCONTROL,RACE,AEROAPP,Nacional,NO,NO,SANTA FE
HLS,,,Helipuerto,OPEN DOOR/LA SUPERBA,"""34°30' 3""""S  59° 0'55""""W""",-59.015184,-34.500721,0,Metros,,0,Lindando,PRIVADO,NOCONTROL,RACE,,Nacional,NO,NO,BUENOS AIRES
LNV,,,Aerodromo,LINCOLN/LA NUEVA,"""34°56'41""""S  61°18' 8""""W""",-61.30217,-34.94464,75,Metros,Lincoln,22,SE,PRIVADO,NOCONTROL,RACE,,Nacional,NO,NO,BUENOS AIRES
ESQ,SAVE,EQS,Aerodromo,ESQUEL/BRIGADIER GENERAL ANTONIO PARODI,"""42°54'14""""S  71° 8' 8""""W""",-71.13554,-42.90381,799,Metros,Esquel,12,ESE,PUBLICO,CONTROL,RASU,CIVIL,Nacional,SI,SI,CHUBUT
GUA,SAAG,GHU,Aerodromo,GUALEGUAYCHU,"""33° 0'20""""S  58°36'46""""W""",-58.61277778,-33.00555556,23,Metros,Gualeguaychu,8,O,PUBLICO,CONTROL,RACE,CIVIL,Nacional,NO,NO,ENTRE RIOS
HCP,,,Helipuerto,YACIMIENTO CAÑADON ALFA/TOTAL AUSTRAL S.A.,"""52°44'19""""S  68°34'21""""W""",-68.572493,-52.738661,87,Metros,,0,Lindando,PRIVADO,NOCONTROL,RASU,CIVIL,Nacional,NO,NO,TIERRA DEL FUEGO ANTARTIDA E ISLAS DEL ATLANTICO SUR
HGN,,,Helipuerto,BUENOS AIRES/CENTINELA,"""34°34'57""""S  58°22'28""""W""",-58.374528,-34.582445,13,Metros,Ciudad de Buenos Aires,0,SE,PRIVADO,NOCONTROL,RACE,JOINT,Nacional,NO,NO,CIUDAD AUTONOMA DE BUENOS AIRES
MAB,,,Aerodromo,MAGGIOLO/SAMAVE,"""33°47'11""""S  62° 7'41""""W""",-62.12792,-33.78639,109,Metros,Maggiolo,13,SE,PRIVADO,NOCONTROL,RACE,AEROAPP,Nacional,NO,NO,SANTA FE
MPU,,,Aerodromo,MAIPU,"""36°53'20""""S  57°51' 6""""W""",-57.85166667,-36.88888889,16,Metros,Maipu,3,SE,PUBLICO,NOCONTROL,RACE,,Nacional,NO,NO,BUENOS AIRES
VGB,,,Aerodromo,VILLA GENERAL BELGRANO,"""31°57'52""""S  64°33'52""""W""",-64.56444444,-31.96444444,840,Metros,Villa General Belgrano,0,NO,PUBLICO,NOCONTROL,RANO,,Nacional,NO,NO,CORDOBA
ATN,,,Aerodromo,TRENQUE LAUQUEN/LA ARGENTINA,"""35°59'52""""S  62°42'23""""W""",-62.70635,-35.99773,95,Metros,Trenque Lauquen,2,SE,PRIVADO,NOCONTROL,RACE,AEROAPP,Nacional,NO,NO,BUENOS AIRES
HLE,,,Helipuerto,LAGO ESCONDIDO/HIDDEN LAKE S.A.,"""41°42'12""""S  71°36'28""""W""",-71.607697,-41.70337,830,Metros,El Bolson,31,NNO,PRIVADO,NOCONTROL,RASU,CIVIL,Nacional,NO,NO,RIO NEGRO
IBY,,,Aerodromo,ISLAS DEL IBICUY,"""33°44'38""""S  58°40'52""""W""",-58.68099,-33.7439,6,Metros,Islas de Ibicuy,3,S,PRIVADO,NOCONTROL,RACE,CIVIL,Nacional,NO,NO,ENTRE RIOS
MAT,SADZ,,Aerodromo,MATANZA,"""34°43'42""""S  58°30' 2""""W""",-58.50055556,-34.72833333,3,Metros,La Matanza,3,NNE,PUBLICO,NOCONTROL,RACE,,Nacional,NO,NO,BUENOS AIRES
SLP,,,Aerodromo,SANTA ROSA/SAN ALBERTO,"""36°35'31""""S  64°13'13""""W""",-64.22041,-36.59206,186,Metros,Santa Rosa,9.3,NE,PRIVADO,NOCONTROL,RACE,AEROAPP,Nacional,NO,NO,LA PAMPA
GBE,,,Aerodromo,GENERAL BELGRANO,"""35°45' 7""""S  58°27'48""""W""",-58.46327,-35.75191,12,Metros,General Belgrano,3,E,PRIVADO,NOCONTROL,RACE,CIVIL,Nacional,NO,NO,BUENOS AIRES
MDB,,,Aerodromo,MAR DEL PLATA/BATAN,"""38° 0'42""""S  57°40'39""""W""",-57.6775,-38.01166667,62,Metros,Batan,11.5,O,PUBLICO,NOCONTROL,RACE,,Nacional,NO,NO,BUENOS AIRES
UNE,,,Aerodromo,FUNES/ALAGRO FUMIGACIONES,"""32°53'18""""S  60°50'37""""W""",-60.8436,-32.88841,35,Metros,Funes,5,NO,PRIVADO,NOCONTROL,RACE,AEROAPP,Nacional,NO,NO,SANTA FE
PLT,,,Aerodromo,PUNTA ALTA,"""38°50' 3""""S  62° 5'14""""W""",-62.08722222,-38.83416667,3,Metros,Punta Alta,5.5,N,PUBLICO,NOCONTROL,RACE,,Nacional,NO,NO,BUENOS AIRES
RVA,,,Aerodromo,AMERICA,"""35°30' 7""""S  62°59'24""""W""",-62.99,-35.50194444,106,Metros,America,1,SO,PUBLICO,NOCONTROL,RACE,CIVIL,Nacional,NO,NO,BUENOS AIRES
BOM,,,Aerodromo,BOMBAL/GRAN ANCONA,"""33°26'19""""S  61°18'12""""W""",-61.30323,-33.43852,97,Metros,Bombal,3,NE,PRIVADO,NOCONTROL,RACE,CIVIL,Nacional,NO,NO,SANTA FE
CCS,,,Aerodromo,CACHI,"""25° 6'19""""S  66° 9'26""""W""",-66.1572,-25.10518,2510,Metros,Cachi,2,NO,PRIVADO,NOCONTROL,RANO,CIVIL,Nacional,NO,NO,SALTA
HPN,,,Helipuerto,BUENOS AIRES/P.N.A. OF. PPAL. BALLESTRA,"""34°34'38""""S  58°23' 2""""W""",-58.383829,-34.577207,6,Metros,Junin y Rafael Obligado (Darsena F),0,Lindando,PRIVADO,NOCONTROL,RACE,MIL,Nacional,NO,NO,CIUDAD AUTONOMA DE BUENOS AIRES
IBA,,,Aerodromo,INES INDART/BELINGUERES AVIACION,"""34°16'40""""S  60°30'16""""W""",-60.50444444,-34.27777778,63.7,Metros,Salto,14,NNE,PRIVADO,NOCONTROL,RACE,CIVIL,Nacional,NO,NO,BUENOS AIRES
EML,,,Aerodromo,CORONEL BRANDSEN/EL MANANTIAL,"""35°11'40""""S  58°21'36""""W""",-58.35994,-35.19441,15,Metros,Coronel Brandsen,12.5,OSO,PRIVADO,NOCONTROL,RACE,CIVIL,Nacional,NO,NO,BUENOS AIRES
HCA,,,Helipuerto,COSTA AZUL/LA CALDERA,"""36°40' 1""""S  56°40'43""""W""",-56.678721,-36.666985,10,Metros,Duhau,,0,Lindando,PRIVADO,NOCONTROL,RACE,CIVIL,Nacional,NO,NO
OGB,,,Aerodromo,CORONEL BOGADO/AEROFUMIGACIONES DON ALEJANDRO,"""33°18'22""""S  60°39'22""""W""",-60.6561,-33.30609,52,Metros,Coronel Bogado,11,ONO,PRIVADO,NOCONTROL,RACE,AEROAPP,Nacional,NO,NO,SANTA FE
COA,,,Aerodromo,ARIAS,"""33°39'52""""S  62°22'30""""W""",-62.37505556,-33.66431111,121.5,Metros,Arias,3,SE,PRIVADO,NOCONTROL,RACE,AEROAPP,Nacional,NO,NO,CORDOBA
JOC,,,Aerodromo,JOVITA/ANTARES,"""34°31'55""""S  63°57'38""""W""",-63.96055556,-34.53194444,154,Metros,Jovita,2,SO,PRIVADO,NOCONTROL,RACE,AEROAPP,Nacional,NO,NO,CORDOBA
LBI,,,Aerodromo,LOBERIA,"""38°11'22""""S  58°47'14""""W""",-58.7872,-38.18951,81,Metros,Loberia,2.5,S,PRIVADO,NOCONTROL,RACE,,Nacional,NO,NO,BUENOS AIRES
LRS,,,Aerodromo,LAS ROSAS,"""32°29'35""""S  61°34'54""""W""",-61.58166667,-32.49305556,102,Metros,Las Rosas,1,S,PUBLICO,NOCONTROL,RACE,CIVIL,Nacional,NO,NO,SANTA FE
OBE,SATO,,Aerodromo,OBERA,"""27°31' 5""""S  55° 7'27""""W""",-55.12421,-27.5181,343,Metros,Obera,3,SE,PRIVADO,NOCONTROL,RANE,,Nacional,NO,NO,MISIONES
PLC,,,Aerodromo,PIÑERO/EA. LA CAROLINA,"""33° 4'32""""S  60°42'54""""W""",-60.715,-33.07559,30,Metros,Piñero,8,NE,PRIVADO,NOCONTROL,RACE,CIVIL,Nacional,NO,NO,SANTA FE
PTL,,,Aerodromo,LA PLATA/TOLOSA,"""34°52'28""""S  57°57'41""""W""",-57.96138889,-34.87444444,6,Metros,La Plata,5,N,PUBLICO,NOCONTROL,RACE,CIVIL,Nacional,NO,NO,BUENOS AIRES
STR,SAZL,SST,Aerodromo,SANTA TERESITA,"""36°32'32""""S  56°43'17""""W""",-56.72138889,-36.54222222,3,Metros,Santa Teresita,2,O,PUBLICO,AERADIO,RACE,,Nacional,SI,NO,BUENOS AIRES
EBF,,,Aerodromo,ESPERANZA/ANIBAL BRIZI,"""31°24'20""""S  60°53'58""""W""",-60.89944444,-31.40555556,39,Metros,Esperanza,1.5,N,PRIVADO,NOCONTROL,RACE,AEROAPP,Nacional,NO,NO,SANTA FE
GAI,,,Aerodromo,GANCEDO/AGROAIRE,"""27°29'41""""S  61°39'32""""W""",-61.65877,-27.49486,115,Metros,Gancedo,1,SE,PRIVADO,NOCONTROL,RANO,CIVIL,Nacional,NO,NO,CHACO
SCA,,,Aerodromo,SUNCHALES/AEROCLUB,"""30°57'26""""S  61°31'44""""W""",-61.52888889,-30.95722222,91,Metros,Sunchales,2,ESE,PUBLICO,NOCONTROL,RANO,,Nacional,NO,NO,SANTA FE
SDE,SANE,SDE,Aerodromo,SANTIAGO DEL ESTERO/VCOM. ANGEL DE LA PAZ ARAGONES,"""27°45'56""""S  64°18'36""""W""",-64.31,-27.76555556,200,Metros,Santiago del Estero,6,NNO,PUBLICO,CONTROL,RANO,,Nacional,SI,SI,SANTIAGO DEL ESTERO
CQN,,,Aerodromo,COSQUIN/SANTA MARIA,"""31°17' 9""""S  64°27'20""""W""",-64.45555556,-31.28583333,700,Metros,Cosquin,4.5,SSE,PRIVADO,NOCONTROL,RANO,CIVIL,Nacional,NO,NO,CORDOBA
LAM,,,Aerodromo,GENERAL LAMADRID,"""37°13'34""""S  61°16'44""""W""",-61.27888889,-37.22611111,171,Metros,General La Madrid,3,NO,PUBLICO,NOCONTROL,RACE,CIVIL,Nacional,NO,NO,BUENOS AIRES
LNH,,,Aerodromo,LAGO NAHUEL HUAPI,"""41° 5'50""""S  71°10'36""""W""",-71.17678,-41.09725,780,Metros,San Carlos de Bariloche,11,ENE,PUBLICO,NOCONTROL,RACE,CIVIL,Nacional,NO,NO,RIO NEGRO
BRA,,,Aerodromo,BRAGADO,"""35° 8'43""""S  60°28'55""""W""",-60.48194444,-35.14527778,60,Metros,Bragado,2,SSE,PUBLICO,NOCONTROL,RACE,CIVIL,Nacional,NO,NO,BUENOS AIRES
CNS,,,Aerodromo,CANALS,"""33°33'45""""S  62°52' 9""""W""",-62.86911,-33.56247,116,Metros,Canals,0.5,E,PRIVADO,NOCONTROL,RANO,CIVIL,Nacional,NO,NO,CORDOBA
ERT,,,Aerodromo,VILLA MERCEDES/EA. DON ROBERTO,"""34° 0' 4""""S  65°21'60""""W""",-65.36657,-34.0011,436,Metros,Villa Mercedes,37,SSE,PRIVADO,NOCONTROL,RANO,,Nacional,NO,NO,SAN LUIS
HPG,,,Helipuerto,PIEDRA DEL AGUILA/TRANSENER S.A.,"""40° 9'41""""S  70° 2'33""""W""",-70.042408,-40.161297,702,Metros,Piedra del Aguila,13.5,S,PRIVADO,NOCONTROL,RACE,CIVIL,Nacional,NO,NO,NEUQUEN
SMT,,,Aerodromo,GENERAL SAN MARTIN,"""37°57'34""""S  63°35'28""""W""",-63.59111,-37.95934,161,Metros,General San Martin,1.5,N,PRIVADO,NOCONTROL,RACE,CIVIL,Nacional,NO,NO,LA PAMPA
HMT,,,Helipuerto,MONTE CRISTO/TRANSENER S.A.,"""31°20'21""""S  63°54'50""""W""",-63.913851,-31.3392,330,Metros,Monte Cristo,3,E,PRIVADO,NOCONTROL,RANO,CIVIL,Nacional,NO,NO,CORDOBA
LLE,,,Aerodromo,LIBERTAD/LA ESMERALDA,"""29°59'42""""S  57°50'18""""W""",-57.83833,-29.9951,81,Metros,Libertad,8,NNO,PRIVADO,NOCONTROL,RANE,,Nacional,NO,NO,CORRIENTES
PNR,,,Aerodromo,PINAMAR,"""37° 5'47""""S  56°58'27""""W""",-56.97416667,-37.09638889,9,Metros,Pinamar,10,OSO,PUBLICO,NOCONTROL,RACE,,Nacional,NO,NO,BUENOS AIRES
HUU,,,Helipuerto,HELIPUERTO SATURNINO UNZUE,"""35°25'24""""S  60° 9'34""""W""",-60.159541,-35.423236,50,Metros,Estacion FFCC,8,E,PRIVADO,NOCONTROL,RACE,CIVIL,Nacional,NO,NO,BUENOS AIRES
PAN,,,Aerodromo,PASCANAS/EL RECUERDO S.R.L.,"""33° 6'20""""S  63°11'35""""W""",-63.19298,-33.1055,138,Metros,Pascanas,14,ONO,PRIVADO,NOCONTROL,RANO,AEROAPP,Nacional,NO,NO,CORDOBA
RAE,,,Aerodromo,RIVADAVIA/AEROTEC,"""33°12'24""""S  68°29'33""""W""",-68.49242,-33.2068,665,Metros,Rivadavia,3,SO,PRIVADO,NOCONTROL,RANO,,Nacional,NO,NO,MENDOZA
AII,,,Aerodromo,CHACABUCO/LAS DOS A,"""34°48'40""""S  60°30'60""""W""",-60.51661,-34.81116,60,Metros,Chacabuco,20,SSO,PRIVADO,NOCONTROL,RACE,AEROAPP,Nacional,NO,NO,BUENOS AIRES
VCC,,,Aerodromo,VILLA CAÑAS/S. A. MIGUEL A. CARDONE,"""33°57'40""""S  61°38' 0""""W""",-61.63335,-33.96101,103,Metros,Villa Cañas,4.5,NO,PUBLICO,NOCONTROL,RACE,CIVIL,Nacional,NO,NO,SANTA FE
HNO,,,Helipuerto,HELIPLATAFORMA/RIO CULLEN-HIDRANORT,"""52°49'14""""S  68°13' 9""""W""",-68.219167,-52.820556,20,Metros,,0,Lindando,PRIVADO,NOCONTROL,RASU,CIVIL,Nacional,NO,NO,TIERRA DEL FUEGO ANTARTIDA E ISLAS DEL ATLANTICO SUR
LCC,,,Aerodromo,LA CARLOTA/CASAJUS,"""33°23'18""""S  63°18'20""""W""",-63.30551,-33.38823,143,Metros,La Carlota,3.5,NNO,PRIVADO,NOCONTROL,RANO,AEROAPP,Nacional,NO,NO,CORDOBA
BAS,,,Aerodromo,BASAVILBASO,"""32°21'42""""S  58°52'54""""W""",-58.8816,-32.3616,60,Metros,Basavilbaso,1,NO,PUBLICO,NOCONTROL,RACE,CIVIL,Nacional,NO,NO,ENTRE RIOS
CCM,,,Aerodromo,CARLOS CASARES/MALATINI,"""35°34' 9""""S  61°22' 6""""W""",-61.36821,-35.56915,82,Metros,Carlos Casares,6,N,PRIVADO,NOCONTROL,RACE,AEROAPP,Nacional,NO,NO,BUENOS AIRES
GLM,,,Aerodromo,GUALEGUAYCHU/BLM CABAÑAS,"""32°58'39""""S  58°31'20""""W""",-58.52222222,-32.9775,7.17,Metros,Gualeguaychu,2.2,OSO,PRIVADO,NOCONTROL,RACE,CIVIL,Nacional,NO,NO,ENTRE RIOS
NAN,,,Aerodromo,HERNANDO/AEROCLUB,"""32°20'25""""S  63°41' 9""""W""",-63.68583333,-32.34027778,282,Metros,Hernando,1,NNE,PRIVADO,NOCONTROL,RANO,CIVIL,Nacional,NO,NO,CORDOBA
SMM,,,Aerodromo,SAN MIGUEL DEL MONTE/BAHIA AGRADABLE,"""35°27'34""""S  58°45'50""""W""",-58.76388889,-35.45944444,24,Metros,San Miguel del Monte,4,SE,PUBLICO,NOCONTROL,RACE,,Nacional,NO,NO,BUENOS AIRES
HAM,,,Helipuerto,HELIPLATAFORMA AM3,"""52°31'22""""S  68°16'51""""W""",-68.280833,-52.522778,41,Metros,Estrecho de Magallanes,0,Lindando,PRIVADO,NOCONTROL,RASU,CIVIL,Nacional,NO,NO,TIERRA DEL FUEGO ANTARTIDA E ISLAS DEL ATLANTICO SUR
HBR,,,Helipuerto,CORDOBA/BERRINI,"""31°26'23""""S  64°20'37""""W""",-64.34373,-31.439765,552,Metros,Cordoba,14,SO,PRIVADO,NOCONTROL,RANO,CIVIL,Nacional,NO,NO,CORDOBA
RCV,,,Aerodromo,RIO COLORADO/VALE,"""37° 3'56""""S  69°23'44""""W""",-69.39555556,-37.06555556,930,Metros,Rincon de los Sauces,56,NO,PRIVADO,NOCONTROL,RANO,CIVIL,Nacional,NO,NO,MENDOZA
CBD,,,Aerodromo,CABILDO,"""38°29'55""""S  61°53' 3""""W""",-61.88416667,-38.49861111,159,Metros,Cabildo,1.5,SE,PRIVADO,NOCONTROL,RACE,CIVIL,Nacional,NO,NO,BUENOS AIRES
HBM,,,Helipuerto,BUENOS AIRES/MADERO,"""34°37'18""""S  58°20'42""""W""",-58.344913,-34.621535,5,Metros,Ciudad de Buenos Aires,0,SE,PRIVADO,NOCONTROL,RACE,CIVIL,Nacional,NO,NO,CIUDAD AUTONOMA DE BUENOS AIRES
PEH,SAZP,PEH,Aerodromo,PEHUAJO/COM. PEDRO ZANNI,"""35°50'40""""S  61°51'27""""W""",-61.85748,-35.84451,85,Metros,Pehuajo,5,SE,PUBLICO,NOCONTROL,RACE,,Nacional,NO,NO,BUENOS AIRES
ROT,,,Aerodromo,ROSARIO DEL TALA,"""32°19'46""""S  59°11'29""""W""",-59.19146,-32.32954,54,Metros,Rosario del Tala,4,SO,PRIVADO,NOCONTROL,RACE,,Nacional,NO,NO,ENTRE RIOS
YPY,,,Aerodromo,YAPEYU,"""29°21'32""""S  56°47'45""""W""",-56.79573,-29.35877,53,Metros,Yapeyu,12,N,PRIVADO,NOCONTROL,RANE,,Nacional,NO,NO,CORRIENTES
BLA,,,Aerodromo,BALCARCE/EA. LA ALBORADA,"""37°27'46""""S  58°11'18""""W""",-58.18833333,-37.46277778,64,Metros,Balcarce,43,NNE,PRIVADO,NOCONTROL,RACE,CIVIL,Nacional,NO,NO,BUENOS AIRES
HHW,,,Helipuerto,MORENO/HELIWEST,"""34°38' 3""""S  58°45' 6""""W""",-58.751782,-34.634199,21.5,Metros,Moreno,3.9,ENE,PRIVADO,NOCONTROL,RACE,CIVIL,Nacional,NO,NO,BUENOS AIRES
LIO,SAZX,,Aerodromo,NUEVE DE JULIO,"""35°23'58""""S  60°55'60""""W""",-60.93333333,-35.39944444,75,Metros,9 de Julio,5,NO,PUBLICO,NOCONTROL,RACE,,Nacional,NO,NO,BUENOS AIRES
SCZ,SAWU,RZA,Aerodromo,SANTA CRUZ,"""50° 1' 4""""S  68°34'49""""W""",-68.58027778,-50.01777778,111,Metros,Puerto Santa Cruz,5,O,PUBLICO,AERADIO,RASU,,Nacional,NO,NO,SANTA CRUZ
TBL,,,Aerodromo,EL TREBOL/BURDISSO,"""32°14'38""""S  61°45'33""""W""",-61.75915,-32.24383,111,Metros,El Trebol,7,SO,PRIVADO,NOCONTROL,RACE,AEROAPP,Nacional,NO,NO,SANTA FE
TUC,SANT,TUC,Aerodromo,TUCUMAN/TENIENTE BENJAMIN MATIENZO,"""26°50'27""""S  65° 6'17""""W""",-65.10472222,-26.84083333,455,Metros,San Miguel de Tucuman,12,E,PUBLICO,CONTROL,RANO,,Internacional,SI,SI,TUCUMAN
IGU,SARI,IGR,Aerodromo,CATARATAS DEL  IGUAZU/MY. D. CARLOS EDUARDO KRAUSE,"""25°44'14""""S  54°28'25""""W""",-54.47354,-25.73722,279,Metros,Cataratas del Iguazu,18,SSE,PUBLICO,CONTROL,RANE,CIVIL,Internacional,SI,SI,MISIONES
MCT,,,Aerodromo,MONTE CASEROS/TIMBOY,"""30°14' 7""""S  57°50'45""""W""",-57.84572,-30.23519,65,Metros,Monte Caseros,21,ONO,PRIVADO,NOCONTROL,RANE,,Nacional,NO,NO,CORRIENTES
SLG,,,Aerodromo,SALDUNGARAY,"""38°12'19""""S  61°45'40""""W""",-61.76115,-38.20517,228,Metros,Saldungaray,4,E,PRIVADO,NOCONTROL,RACE,,Nacional,NO,NO,BUENOS AIRES
TQL,,,Aerodromo,TRENQUE LAUQUEN/ÑANCO LAUQUEN,"""35°58'13""""S  62°46'19""""W""",-62.77194444,-35.97027778,92,Metros,Trenque Lauquen,3.5,O,PUBLICO,NOCONTROL,RACE,,Nacional,NO,NO,BUENOS AIRES
AYA,,,Aerodromo,AYACUCHO,"""37° 9'45""""S  58°28'23""""W""",-58.47305556,-37.1625,77,Metros,Ayacucho,0.9,SE,PUBLICO,NOCONTROL,RACE,CIVIL,Nacional,NO,NO,BUENOS AIRES
DRY,SAVY,PMY,Aerodromo,PUERTO MADRYN/EL TEHUELCHE,"""42°45'33""""S  65° 6'10""""W""",-65.10277778,-42.75916667,130,Metros,Puerto Madryn,5.3,ONO,PUBLICO,CONTROL,RASU,,Nacional,SI,SI,CHUBUT
HSN,,,Helipuerto,SAN NICOLAS DE LOS ARROYOS/MIGUEL COLOMBISE,"""33°21'32""""S  60°14'58""""W""",-60.249353,-33.358932,27,Metros,Estacion FFCC local,2.7,SO,PUBLICO,NOCONTROL,RACE,CIVIL,Nacional,NO,NO,BUENOS AIRES
NEC,SAZO,NEC,Aerodromo,NECOCHEA,"""38°29'22""""S  58°48'59""""W""",-58.81626,-38.48954,22,Metros,Necochea,10,NE,PUBLICO,AERADIO,RACE,,Nacional,SI,NO,BUENOS AIRES
PAS,,,Aerodromo,PASTEUR/LAS LILAS,"""35° 6'34""""S  62°13' 4""""W""",-62.21764,-35.10957,107,Metros,Pasteur,2,NE,PRIVADO,NOCONTROL,RACE,,Nacional,NO,NO,BUENOS AIRES
SBE,,,Aerodromo,SAN BENITO,"""31°48'31""""S  60°27' 6""""W""",-60.45166667,-31.80861111,59,Metros,San Benito,2.8,SSO,PRIVADO,NOCONTROL,RACE,AEROAPP,Nacional,NO,NO,ENTRE RIOS
TOR,,,Aerodromo,TORNQUIST,"""38° 5'42""""S  62°14'58""""W""",-62.24944444,-38.095,285,Metros,Tornquist,2,O,PRIVADO,NOCONTROL,RACE,,Nacional,NO,NO,BUENOS AIRES
VRG,,,Aerodromo,VILLA REGINA,"""39° 4'29""""S  67° 4'41""""W""",-67.07805556,-39.07472222,285,Metros,Villa Regina,1.4,N,PUBLICO,NOCONTROL,RACE,,Nacional,NO,NO,RIO NEGRO
AMA,,,Aerodromo,ROBERTS/LA AMALIA,"""35° 6' 2""""S  62° 0'60""""W""",-62.01657,-35.10043,100,Metros,Roberts,6.5,NO,PRIVADO,NOCONTROL,RACE,AEROAPP,Nacional,NO,NO,BUENOS AIRES
HME,,,Helipuerto,PILAR/MEMORIAL,"""34°26'40""""S  58°50'12""""W""",-58.836706,-34.444449,19,Metros,Ruta Panamericana Km. 46,0,,PRIVADO,NOCONTROL,RACE,CIVIL,Nacional,NO,NO,BUENOS AIRES
RUF,,,Aerodromo,RUFINO,"""34°16'58""""S  62°40' 3""""W""",-62.6675,-34.28277778,114,Metros,Rufino,5,ESE,PUBLICO,NOCONTROL,RACE,,Nacional,NO,NO,SANTA FE
GAS,,,Aerodromo,GENERAL VILLEGAS,"""34°59'46""""S  62°59'56""""W""",-62.99883,-34.99615,117,Metros,General Villegas,4.5,NNE,PUBLICO,NOCONTROL,RACE,CIVIL,Nacional,NO,NO,BUENOS AIRES
IAL,,,Aerodromo,INTENDENTE ALVEAR,"""35°14' 1""""S  63°33'57""""W""",-63.56571,-35.23368,127,Metros,Intendente Alvear,2.5,E,PUBLICO,NOCONTROL,RACE,CIVIL,Nacional,NO,NO,LA PAMPA
IVL,,,Aerodromo,ISLA VERDE/BIONDI,"""33°13'24""""S  62°24'17""""W""",-62.40464,-33.2232,119,Metros,Isla Verde,2,NNE,PRIVADO,NOCONTROL,RANO,AEROAPP,Nacional,NO,NO,CORDOBA
MUQ,,,Aerodromo,QUEMU QUEMU,"""36° 3'27""""S  63°37'53""""W""",-63.63138889,-36.0575,0,Metros,Quemu Quemu,6,O,PUBLICO,NOCONTROL,RACE,,Nacional,NO,NO,LA PAMPA
SGE,,,Aerodromo,SAN GREGORIO,"""34°19' 1""""S  62° 1' 9""""W""",-62.01916667,-34.31694444,106,Metros,San Gregorio,2,NE,PRIVADO,NOCONTROL,RACE,,Nacional,NO,NO,SANTA FE
HSJ,,,Aerodromo,CURUZU CUATIA/EA. SAN JUAN,"""29°36' 6""""S  58° 1'19""""W""",-58.02205,-29.60179,82,Metros,Curuzu Cuatia,20,N,PRIVADO,NOCONTROL,RANE,CIVIL,Nacional,NO,NO,CORRIENTES
JDA,,,Aerodromo,JARDIN DE AMERICA,"""27° 1'57""""S  55°11'53""""W""",-55.19805556,-27.0325,205,Metros,Jardin America,3,ENE,PRIVADO,NOCONTROL,RANE,CIVIL,Nacional,NO,NO,MISIONES
VDL,,,Aerodromo,CORONEL VIDAL,"""37°28' 4""""S  57°46' 2""""W""",-57.76722222,-37.46777778,26,Metros,Coronel Vidal,3.7,OSO,PUBLICO,NOCONTROL,RACE,CIVIL,Nacional,NO,NO,BUENOS AIRES
BLL,,,Aerodromo,MIRAMAR/LAS CORTADERAS,"""38°21'17""""S  58° 6'31""""W""",-58.10861111,-38.35472222,16,Metros,Mechongue,25,SE,PRIVADO,NOCONTROL,RACE,,Nacional,NO,NO,BUENOS AIRES
EZP,,,Aerodromo,EZPELETA,"""34°44'47""""S  58°12'12""""W""",-58.20333333,-34.74638889,3,Metros,Ezpeleta,3,ENE,PUBLICO,NOCONTROL,RACE,CIVIL,Nacional,NO,NO,BUENOS AIRES
HPM,,,Helipuerto,LA PLATA/POLICLINICO SAN MARTIN,"""34°55'29""""S  57°55'19""""W""",-57.921928,-34.924584,21,Metros,Av. 1 y Calle 71,0,Lindando,PUBLICO,NOCONTROL,RACE,CIVIL,Nacional,NO,NO,BUENOS AIRES
LDG,,,Aerodromo,LAGUNA DE GOMEZ,"""34°39'17""""S  61° 0'33""""W""",-61.0091,-34.65469,80,Metros,Junin,11,SSO,PUBLICO,NOCONTROL,RACE,CIVIL,Nacional,NO,NO,BUENOS AIRES
DTE,,,Aerodromo,DIAMANTE,"""32° 0'58""""S  60°34'60""""W""",-60.58329,-32.01621,75,Metros,Diamante,4.5,NNE,PUBLICO,NOCONTROL,RACE,CIVIL,Nacional,NO,NO,ENTRE RIOS
LHP,,,Aerodromo,LAS HERAS/LOS PERALES,"""46°11'31""""S  69°17'13""""W""",-69.28694444,-46.19194444,426,Metros,Las Heras,47,NO,PRIVADO,NOCONTROL,RASU,CIVIL,Nacional,NO,NO,SANTA CRUZ
LPP,,,Aerodromo,LAS PALMAS/PETRUK,"""27° 5'16""""S  58°40'10""""W""",-58.66944444,-27.08777778,54,Metros,Las Palmas,4,SSE,PRIVADO,NOCONTROL,RANE,AEROAPP,Nacional,NO,NO,CHACO
MSP,,,Aerodromo,MARCOS PAZ,"""34°47'51""""S  58°53'49""""W""",-58.89693,-34.79759,28,Metros,Marcos Paz,6.5,E,PRIVADO,NOCONTROL,RACE,,Nacional,NO,NO,BUENOS AIRES
SGR,SAVS,SGV,Aerodromo,SIERRA GRANDE,"""41°35'29""""S  65°20'24""""W""",-65.33991,-41.59138,210,Metros,Sierra Grande,2.5,NE,PUBLICO,AERADIO,RASU,,Nacional,NO,NO,RIO NEGRO
URL,,,Aerodromo,URIBURU/ESTANCIA LOS ROBLES,"""36°33'11""""S  63°45'59""""W""",-63.76652,-36.55297,137,Metros,Uriburu,10,ESE,PRIVADO,NOCONTROL,RACE,CIVIL,Nacional,NO,NO,LA PAMPA
BEL,,,Aerodromo,BELL VILLE,"""32°39'30""""S  62°42' 7""""W""",-62.70194444,-32.65833333,131,Metros,Bell Ville,2.5,SSO,PUBLICO,NOCONTROL,RANO,CIVIL,Nacional,NO,NO,CORDOBA
MLD,,,Aerodromo,CORONEL MOLDES,"""33°37' 3""""S  64°37' 1""""W""",-64.61701,-33.61743,357,Metros,Coronel Moldes,1.5,NNO,PUBLICO,NOCONTROL,RANO,CIVIL,Nacional,NO,NO,CORDOBA
